id,ident,type,name,latitude_deg,longitude_deg,elevation_ft,continent,iso_country,iso_region,municipality,scheduled_service,icao_code,iata_code,gps_code
12243,5A8,medium_airport,Aleknagik / New Airport,59.2826004028,-158.617996216,66,NA,US,US-AK,Aleknagik,yes,,WKK,5A8
516263,AE-0221,medium_airport,Sas Al Nakheel Air Base,24.44128,54.51696,,AS,AE,AE-U-A,Sas Al Nakheel,no,,,
3,AGGH,large_airport,Honiara International Airport,-9.428,160.054993,28,OC,SB,SB-GU,Honiara,yes,AGGH,HIR,AGGH
4,AGGM,medium_airport,Munda Airport,-8.32797,157.263,10,OC,SB,SB-WE,Munda,yes,AGGM,MUA,AGGM
8,ANYN,medium_airport,Nauru International Airport,-0.547458,166.919006,22,OC,NR,NR-14,Yaren District,yes,ANYN,INU,ANYN
336951,AQBC,medium_airport,Boulder Clay Runway,-74.739373,164.03539,672,AN,AQ,AQ-U-A,Zucchelli Station,no,,,AQBC
596544,AR-0767,medium_airport,Aeroestación Yabotí,-27.180308,-54.107368,400,SA,AR,AR-N,El Soberbio,yes,,,
336953,AT03,medium_airport,Concordia Skyway,-75.103278,123.35825,10725,AN,AQ,AQ-U-A,Concordia Station,no,,,AT03
336959,AT28,medium_airport,Vostok Skiway,-78.466139,106.84825,11447,AN,AQ,AQ-U-A,Vostok Station,no,,,AT28
314558,AXF,medium_airport,Alxa Left Banner Bayanhot Airport,38.74831,105.58858,4560,AS,CN,CN-15,Bayanhot,yes,ZBAL,AXF,ZBAL
35179,AYBA,medium_airport,Baimuru Airport,-7.49686002731,144.819900513,27,OC,PG,PG-GPK,Baimuru,yes,AYBA,VMU,AYBA
53,AYBK,medium_airport,Buka Airport,-5.4223198890686035,154.67300415039062,11,OC,PG,PG-NSB,Buka Island,yes,AYBK,BUA,AYBK
35180,AYBM,medium_airport,Balimo Airport,-8.05000019073,142.932998657,51,OC,PG,PG-WPD,Balimo,yes,AYBM,OPU,AYBM
54,AYCH,medium_airport,Chimbu Airport,-6.024290084838867,144.9709930419922,4974,OC,PG,PG-CPK,Kundiawa,yes,AYCH,CMU,AYCH
55,AYDU,medium_airport,Daru Airport,-9.08676,143.207993,20,OC,PG,PG-WPD,Daru,yes,AYDU,DAU,AYDU
56,AYGA,medium_airport,Goroka Airport,-6.081689834590001,145.391998291,5282,OC,PG,PG-EHG,Goronka,yes,AYGA,GKA,AYGA
57,AYGN,medium_airport,Gurney Airport,-10.3114995956,150.333999634,88,OC,PG,PG-MBA,Gurney,yes,AYGN,GUR,AYGN
58,AYGR,medium_airport,Girua Airport,-8.80453968048,148.309005737,311,OC,PG,PG-NPP,Popondetta,yes,AYGR,PNP,AYGR
59,AYHK,medium_airport,Hoskins Airport,-5.463846,150.407327,66,OC,PG,PG-WBK,Kimbe,yes,AYHK,HKN,AYHK
60,AYKM,medium_airport,Kerema Airport,-7.96361017227,145.770996094,10,OC,PG,PG-GPK,Kerema,yes,AYKM,KMA,AYKM
61,AYKV,medium_airport,Kavieng Airport,-2.57940006256,150.807998657,7,OC,PG,PG-NIK,Kavieng,yes,AYKV,KVG,AYKV
62,AYMD,medium_airport,Madang Airport,-5.20707988739,145.789001465,20,OC,PG,PG-MPM,Madang,yes,AYMD,MAG,AYMD
63,AYMH,medium_airport,Mount Hagen Kagamuga Airport,-5.828212,144.299412,5388,OC,PG,PG-WHM,Mount Hagen,yes,AYMH,HGU,AYMH
64,AYMN,medium_airport,Mendi Airport,-6.14774,143.656998,5680,OC,PG,PG-SHM,Mendi,yes,AYMN,MDU,AYMN
65,AYMO,medium_airport,Momote Airport,-2.06189,147.423996,12,OC,PG,PG-MRL,Manus Island,yes,AYMO,MAS,AYMO
66,AYNZ,medium_airport,Nadzab Airport,-6.569803,146.725977,239,OC,PG,PG-MPL,Lae,yes,AYNZ,LAE,AYNZ
67,AYPY,large_airport,Port Moresby Jacksons International Airport,-9.443380355834961,147.22000122070312,146,OC,PG,PG-NCD,Port Moresby,yes,AYPY,POM,AYPY
68,AYTK,medium_airport,Tokua Airport,-4.34046,152.380005,49,OC,PG,PG-EBR,Kokopo,yes,AYTK,RAB,AYTK
69,AYVN,medium_airport,Vanimo Airport,-2.6926,141.3028,10,OC,PG,PG-SAN,Vanimo,yes,AYVN,VAI,AYVN
70,AYWD,medium_airport,Wapenamanda Airport,-5.635293,143.892231,5889,OC,PG,PG-EPW,Wapenamanda,yes,AYWD,WBM,AYWD
71,AYWK,medium_airport,Wewak International Airport,-3.58383011818,143.669006348,19,OC,PG,PG-ESW,Wewak,yes,AYWK,WWK,AYWK
44941,AZ-0001,medium_airport,Zabrat Airport,40.494884,49.977065,36,AS,AZ,AZ-BA,Zabrat,no,UBTT,ZXT,UBTT
44954,AZ-0013,medium_airport,Sitalchay Airbase,40.807313,49.431481,-46,AS,AZ,AZ-XIZ,Sitalchay,no,,,
44962,AZ-0021,medium_airport,Qizilagach Air Base,39.006162,48.806312,,AS,AZ,AZ-MAS,Qizilagach,no,,,
27301,BCW,medium_airport,Benguera Island Airport,-21.8533,35.438301,,AF,MZ,MZ-I,Benguera Island,no,,BCW,
111,BG-JAM,medium_airport,Bezmer Air Base,42.454899,26.3522,509,EU,BG,BG-28,Bezmer,no,,JAM,LBIA
31697,BGAA,medium_airport,Aasiaat Airport,68.721802,-52.784698,74,NA,GL,GL-QK,Aasiaat,yes,BGAA,JEG,BGAA
113,BGBW,medium_airport,Narsarsuaq Airport,61.1605,-45.425999,112,NA,GL,GL-KU,Narsarsuaq,yes,BGBW,UAK,BGBW
114,BGGH,medium_airport,Nuuk Airport,64.191066,-51.67914,283,NA,GL,GL-SE,Nuuk,yes,BGGH,GOH,BGGH
31694,BGJN,medium_airport,Ilulissat Airport,69.243202,-51.057098,95,NA,GL,GL-AV,Ilulissat,yes,BGJN,JAV,BGJN
31786,BGKK,medium_airport,Kulusuk Airport,65.573601,-37.1236,117,NA,GL,GL-SE,Kulusuk,yes,BGKK,KUS,BGKK
115,BGSF,medium_airport,Kangerlussuaq Airport,67.010446,-50.715294,165,NA,GL,GL-QA,Kangerlussuaq,yes,BGSF,SFJ,BGSF
31700,BGSS,medium_airport,Sisimiut Airport,66.951302,-53.729301,33,NA,GL,GL-QA,Sisimiut,yes,BGSS,JHS,BGSS
116,BGTL,medium_airport,Pituffik Space Base,76.531197,-68.703201,251,NA,GL,GL-AV,Pituffik,yes,BGTL,THU,BGTL
117,BIAR,medium_airport,Akureyri Airport,65.656573,-18.072018,6,EU,IS,IS-6,Akureyri,yes,BIAR,AEY,BIAR
119,BIEG,medium_airport,Egilsstaðir Airport,65.2833023071289,-14.401399612426758,76,EU,IS,IS-7,Egilsstaðir,yes,BIEG,EGS,BIEG
120,BIHN,medium_airport,Hornafjörður Airport,64.295601,-15.2272,24,EU,IS,IS-8,Höfn,yes,BIHN,HFN,BIHN
121,BIHU,medium_airport,Húsavík Airport,65.952301,-17.426001,48,EU,IS,IS-6,Húsavík,yes,BIHU,HZK,BIHU
122,BIIS,medium_airport,Ísafjörður Airport,66.058098,-23.1353,8,EU,IS,IS-4,Ísafjörður,yes,BIIS,IFJ,BIIS
123,BIKF,large_airport,Keflavik International Airport,63.985001,-22.6056,171,EU,IS,IS-2,Reykjavík,yes,BIKF,KEF,BIKF
125,BIRK,medium_airport,Reykjavík Domestic Airport,64.128732,-21.93759,48,EU,IS,IS-1,Reykjavík,yes,BIRK,RKV,BIRK
126,BISI,medium_airport,Siglufjörður Airport,66.137847,-18.908157,10,EU,IS,IS-6,Siglufjörður,no,BISI,SIJ,BISI
128,BIVM,medium_airport,Vestmannaeyjar Airport,63.42430114746094,-20.278900146484375,326,EU,IS,IS-8,Vestmannaeyjar,no,BIVM,VEY,BIVM
4614,BKPR,medium_airport,Priština Adem Jashari International Airport,42.5728,21.035801,1789,EU,XK,XK-01,Prishtina,yes,BKPR,PRN,BKPR
333222,BR-0569,medium_airport,Glauber de Andrade Rocha Airport,-14.907885,-40.914804,2940,SA,BR,BR-BA,Vitória da Conquista,yes,,VDC,SBVC
388,BR-2182,medium_airport,Russas - João de Deus Regional Airport,-4.94727,-38.008202,115,SA,BR,BR-CE,Russas,no,,,
353792,BTZ,medium_airport,Betong International Airport,5.79,101.15,785,AS,TH,TH-95,Betong,no,,BTZ,VTSY
34946,BY-0001,medium_airport,Orsha Airport - Balbasovo Air Base,54.439999,30.2967,620,EU,BY,BY-VI,Orsha,no,,TXC,UMIO
44363,BY-0006,medium_airport,Osovtsy Air Base,52.556999,24.884001,,EU,BY,BY-BR,Byaroza,no,,,UMMO
30861,BZ-CUK,medium_airport,Caye Caulker Airport,17.735015,-88.032862,2,NA,BZ,BZ-BZ,Caye Caulker,yes,,CUK,MZCK
30867,BZ-CYC,medium_airport,Caye Chapel Airport,17.683792,-88.044985,3,NA,BZ,BZ-BZ,Caye Chapel,yes,,CYC,MZCP
42209,BZ-CZH,medium_airport,Corozal Airport,18.3822,-88.411903,40,NA,BZ,BZ-CZL,Corozal,yes,,CZH,MZCZ
42207,BZ-DGA,medium_airport,Dangriga Airport,16.98251,-88.230988,10,NA,BZ,BZ-SC,Dangriga,yes,,DGA,MZPB
35305,BZ-PND,medium_airport,Punta Gorda Airport,16.1024,-88.808296,7,NA,BZ,BZ-TOL,Punta Gorda,yes,,PND,MZPG
42210,BZ-SJX,medium_airport,Sartaneja Airport,18.3561,-88.130798,3,NA,BZ,BZ-CZL,Sartaneja,yes,,SJX,MZSJ
32370,BZ-SPR,medium_airport,John Greif II Airport,17.9139,-87.9711,4,NA,BZ,BZ-CY,San Pedro,yes,,SPR,MZSP
42215,BZ-TZA,medium_airport,Sir Barry Bowen Municipal Airport,17.517239,-88.195775,8,NA,BZ,BZ-BZ,Belize City,yes,,TZA,MZBE
27300,BZB,medium_airport,Bazaruto Island Airport,-21.5411,35.4729,,AF,MZ,MZ-I,Bazaruto Island,no,,BZB,
624,CAJ4,medium_airport,Anahim Lake Airport,52.451501,-125.303776,3635,NA,CA,CA-BC,Anahim Lake,yes,,YAA,CAJ4
643,CAT4,medium_airport,Qualicum Beach Airport,49.337456,-124.393086,191,NA,CA,CA-BC,Qualicum Beach,yes,,XQU,CAT4
657,CAZ5,medium_airport,Cache Creek-Ashcroft Regional Airport,50.775258,-121.321314,2034,NA,CA,CA-BC,Cache Creek,no,,YZA,CAZ5
664,CBBC,medium_airport,Bella Bella (Campbell Island) Airport,52.185001,-128.156994,141,NA,CA,CA-BC,Bella Bella,yes,CBBC,ZEL,CBBC
344674,CD-0024,medium_airport,Boma Lukandu International Airport,-5.80543,12.99582,281,AF,CD,CD-BC,Boma,no,,,
43972,CN-0003,medium_airport,Laohutun Air Base,39.669998,121.765999,,AS,CN,CN-21,Dalian (Wafangdian),no,,,
43973,CN-0004,medium_airport,Pulandian Air Base,39.450901,122.017998,,AS,CN,CN-21,"Pulandian, Dalian",no,,,
44082,CN-0006,medium_airport,Beijing Shahezhen Air Base,40.149166107177734,116.3213882446289,,AS,CN,CN-11,Beijing,no,,,
44083,CN-0007,medium_airport,Beijing Tongxian Air Base,39.81111145019531,116.70833587646484,,AS,CN,CN-11,Beijing,no,,,
44089,CN-0013,medium_airport,Fengning Air Base,41.260799407958984,116.61799621582031,,AS,CN,CN-13,,no,,,
44090,CN-0014,medium_airport,Hohhot Bikeqi Air Base,40.737015,111.229749,,AS,CN,CN-15,Hohhot,no,,,
44091,CN-0015,medium_airport,Huairen Air Base,39.717499,113.142998,3260,AS,CN,CN-14,Shuozhou,no,,,
44092,CN-0016,medium_airport,Liangxiangzhen Air Base,39.757801,116.125999,,AS,CN,CN-11,Beijing,no,,,ZBLX
44094,CN-0018,medium_airport,Tangguantun Air Base,38.781101,117.068001,,AS,CN,CN-12,Jinghai,no,,,
44096,CN-0020,medium_airport,Wenshui Air Base,37.407799,111.966003,,AS,CN,CN-14,Lüliang,no,,,
44097,CN-0021,medium_airport,Yangcun Air Base,39.37329864501953,117.09500122070312,,AS,CN,CN-12,,no,,,
44098,CN-0022,medium_airport,Yongning Air Base,40.50310134887695,116.10800170898438,,AS,CN,CN-11,Yongning,no,,,
44101,CN-0025,medium_airport,Tangshan Zunhua Air Base,40.102501,117.887001,,AS,CN,CN-13,Tangshan,no,,,
44102,CN-0026,medium_airport,Chengdu Huangtianba Air Base,30.705299,103.949997,,AS,CN,CN-51,Chengdu (Qingyang),no,,,
44106,CN-0030,medium_airport,Chongqing Baishiyi Air Base,29.4953,106.359001,,AS,CN,CN-50,Chongqing,no,,,
44117,CN-0041,medium_airport,Luliang Air Base,24.988192,103.642833,,AS,CN,CN-53,Qujing (Luliang),no,,,
44119,CN-0043,medium_airport,Honghe Mengzi Airport / Mengzi Air Base,23.3953,103.334,,AS,CN,CN-53,Honghe,no,,,
44121,CN-0045,medium_airport,Qionglai Air Base,30.49099,103.466139,,AS,CN,CN-51,Chengdu (Qionglai),no,,,
44124,CN-0048,medium_airport,Wenshan Air Base,23.715599060058594,103.8270034790039,,AS,CN,CN-53,,no,,,
44125,CN-0049,medium_airport,Xiangyun Midu Air Base,25.445299,100.735001,,AS,CN,CN-53,Dali (Xiangyun),no,,,
44131,CN-0053,medium_airport,Baihe Ningming Air Base,22.120481,107.125046,,AS,CN,CN-45,Ningming,no,,,
44133,CN-0055,medium_airport,Changsha Datuopu Airport / Changsha Air Base,28.068522,112.957306,170,AS,CN,CN-43,Changsha (Tianxin),no,,,ZGCS
44134,CN-0056,medium_airport,Dangyang Air Base,30.798599,111.809998,,AS,CN,CN-42,Yichang (Dangyang),no,,,
44135,CN-0057,medium_airport,Foluo Northeast Air Base,18.6922,109.161003,,AS,CN,CN-46,Ledong (Da'anzhen),no,,,
44141,CN-0063,medium_airport,Guiping Mengxu Air Base,23.330799,110.009003,171,AS,CN,CN-45,Guiping (Guigang),no,,,
44147,CN-0069,medium_airport,Jialaishi Air Base,19.697201,109.725998,,AS,CN,CN-46,Lingao (Jialai),no,,,
44149,CN-0071,medium_airport,Leiyang Air Base,26.587200164794922,112.89199829101562,,AS,CN,CN-43,,no,,,
44150,CN-0072,medium_airport,Lingshui Air Base,18.4944,109.987999,,AS,CN,CN-46,Lingshui (Huayuan),no,,,
324349,CN-0074,medium_airport,Shangqiu Air Base,34.449507,115.459261,,AS,CN,CN-41,Shangqiu,no,,,
324768,CN-0076,medium_airport,Zhengzhou Air Base,34.86125,113.729631,,AS,CN,CN-41,Zhengzhou,no,,,
44157,CN-0079,medium_airport,Shaoguan Danxia Airport,24.9786,113.420998,280,AS,CN,CN-44,Shaoguan,yes,ZGSG,HSC,ZGSG
44158,CN-0080,medium_airport,Suixi Air Base,21.3958,110.199997,,AS,CN,CN-44,Zhanjiang (Suixi),no,,,
44159,CN-0081,medium_airport,Jinggangshan Airport,26.856899,114.737,281,AS,CN,CN-36,Ji'an,yes,ZSGS,JGS,ZSGS
329666,CN-0083,medium_airport,Guodu Air Base,36.000428,117.625833,,AS,CN,CN-37,"Xintai, Tai'an",no,,,
44163,CN-0085,medium_airport,Xiaogan Air Base,30.95359,113.911774,,AS,CN,CN-42,Xiaogan (Xiaonan),no,,,
44168,CN-0090,medium_airport,Cangxian Air Base,38.403025,116.930924,,AS,CN,CN-13,Cangzhou,no,,,
44170,CN-0092,medium_airport,Jiaozhou Jiaocheng Air Base,36.331163,120.025538,62,AS,CN,CN-37,Qingdao (Jiaozhou),no,,,
44172,CN-0094,medium_airport,Jiugucheng Air Base,37.491153,116.116726,75,AS,CN,CN-13,Hengshui,no,,,
44173,CN-0095,medium_airport,Kaifeng Air Base,34.75389862060547,114.33899688720703,,AS,CN,CN-41,Kaifeng,no,,,
44174,CN-0096,medium_airport,Laiyang Air Base,36.9636,120.591003,,AS,CN,CN-37,Yantai,no,,,
44175,CN-0097,medium_airport,Luyang Air Base,33.685434,112.89053,469,AS,CN,CN-41,Xuchang (Pingdingshan),no,,,
44184,CN-0106,medium_airport,Xuzhou Daguozhang Air Base,34.229285,117.245665,,AS,CN,CN-32,Xuzhou,no,,,
44189,CN-0111,medium_airport,Zhucheng Air Base,36.027468,119.43778,,AS,CN,CN-37,Weifang (Zhucheng),no,,,
44192,CN-0114,medium_airport,Baoji Air Base,34.53125,107.470679,,AS,CN,CN-61,Baoji (Fengxiang),no,,,
44195,CN-0117,medium_airport,Gonghe Air Base (under construction),36.3367,100.480003,,AS,CN,CN-63,Hainan (Gonghe),no,,,
339961,CN-0121,medium_airport,Huangdicun Naval Air Base,40.49979,120.659295,97,AS,CN,CN-21,Huludao,no,,,
44201,CN-0123,medium_airport,Lanzhou Air Base,35.917801,104.218002,,AS,CN,CN-62,Lanzhou (Yuzhong),no,,,
44203,CN-0125,medium_airport,Lintao Air Base,35.3083,103.835999,,AS,CN,CN-62,Dingxi (Lintao),no,,,
44205,CN-0127,medium_airport,Qingshui Air Base,39.554699,98.884201,4872,AS,CN,CN-62,Jiuquan (Suzhou),no,,,
44210,CN-0132,medium_airport,Ürümqi South Air Base,43.466593,87.531177,,AS,CN,CN-65,Ürümqi,no,,,
44211,CN-0133,medium_airport,Uxxaktal Air Base,42.1814,87.188103,,AS,CN,CN-65,"Hoxud, Bayingolin",no,,,ZWML
44212,CN-0134,medium_airport,Wugong Air Base,34.275907,108.2658,,AS,CN,CN-61,Xianyang (Wugong),no,,,
44213,CN-0135,medium_airport,Ürümqi Changji Air Base,43.951175,87.079232,2425,AS,CN,CN-65,Ashilixiang,no,,,
44214,CN-0136,medium_airport,Wuwei Air Base,37.9883,102.567001,,AS,CN,CN-62,Wuwei,no,,,
44215,CN-0137,medium_airport,Xi'an Air Base,34.153059,108.599739,1337,AS,CN,CN-61,Xi'an (Huyi),no,,,
44216,CN-0138,medium_airport,Xincheng Air Base,25.5483,114.619003,,AS,CN,CN-36,Ganzhou,no,,,
44217,CN-0139,medium_airport,Yaerbashi Test Range,43.077202,92.808098,,AS,CN,CN-65,"Yizhou, Hami",no,,,
44218,CN-0140,medium_airport,Yanliang Air Base,34.642248,109.241867,,AS,CN,CN-61,Xi'an (Yanliang),no,,,
44224,CN-0146,medium_airport,Daishan Air Base,30.287581,122.144401,7,AS,CN,CN-33,Zhoushan,no,,,
44225,CN-0147,medium_airport,Feidong Air Base,31.909401,117.658997,,AS,CN,CN-34,Hefei,no,,,
44227,CN-0149,medium_airport,Fuzhou Air Base,26.003857,119.312832,20,AS,CN,CN-35,Fuzhou (Cangshan),no,,,
44230,CN-0152,medium_airport,Huian Air Base,25.0261,118.806999,75,AS,CN,CN-35,Quanzhou (Huian),no,,,
44231,CN-0153,medium_airport,Hangzhou Jianqiao Airport,30.3353,120.240997,,AS,CN,CN-33,Hangzhou,no,,,
44232,CN-0154,medium_airport,Jiaxing Airport / Jiaxing Air Base,30.705535,120.679779,17,AS,CN,CN-33,"Xiuzhou, Hangzhou",no,,,
44236,CN-0158,medium_airport,Longtian Air Base,25.5728,119.459999,13,AS,CN,CN-35,Fuzhou (Fuqing),no,,,
44241,CN-0163,medium_airport,Nanchang Xiangtang Air Base,28.421205,115.923375,75,AS,CN,CN-36,Nanchang,no,,,
44243,CN-0165,medium_airport,Ningbo Zhuangqiao Air Base,29.9228,121.573997,,AS,CN,CN-33,Ningbo,no,,,
44247,CN-0169,medium_airport,Shanghai Dachang Air Base,31.324438,121.409508,,AS,CN,CN-31,Shanghai (Baoshan),no,,,
348150,CN-0178,medium_airport,Wuhan Hannan Municipal Airport,30.25521,114.062805,85,AS,CN,CN-42,Wuhan (Hannan),no,,WHN,
44260,CN-0182,medium_airport,Zhangshu Air Base,28.023283,115.549649,116,AS,CN,CN-36,Yichun,no,,,
44263,CN-0185,medium_airport,Changchun Air Base,43.9053,125.197998,,AS,CN,CN-22,Changchun,no,,,
348158,CN-0188,medium_airport,Beijing Nanjiao Airport,39.48595,116.37236,,AS,CN,CN-11,Beijing,no,,NAY,ZBNY
44268,CN-0190,medium_airport,Dingxin-Shuangchengzi Air Base,40.401402,99.789398,,AS,CN,CN-62,Jiuquan (Jinta),no,,,
44269,CN-0191,medium_airport,Fuxin Air Base,42.078899,121.662003,,AS,CN,CN-21,"Xihe, Fuxin",no,,,
44270,CN-0192,medium_airport,Gongzhuling Air Base,43.526293,124.78466,,AS,CN,CN-22,Siping,no,,,
44275,CN-0197,medium_airport,Kaiyuan Air Base,42.525799,123.982002,,AS,CN,CN-21,"Qinghe, Tieling",no,,,
44276,CN-0198,medium_airport,Lalin Air Base,45.259457,126.893536,,AS,CN,CN-23,Harbin,no,,,
44279,CN-0201,medium_airport,Pingquan Air Base,40.900409,118.677878,,AS,CN,CN-13,Chengde,no,,,
44282,CN-0204,medium_airport,Shenyang Beiling Air Base,41.8708,123.439003,,AS,CN,CN-21,"Huanggu, Shenyang",no,,,
44284,CN-0206,medium_airport,Shenyang Yuhong Quansheng Airport,41.822498,123.299004,,AS,CN,CN-21,"Yuhong, Shenyang",no,,,ZYSY
44286,CN-0208,medium_airport,Siping Air Base,43.156898,124.292,,AS,CN,CN-22,Siping,no,,,
44287,CN-0209,medium_airport,Suizhong Air Base,40.298992,120.36152,43,AS,CN,CN-21,Huludao (Suizhong),no,,,
44288,CN-0210,medium_airport,Tuchengzi Air Base,38.912201,121.238998,,AS,CN,CN-21,Dalian (Lüshunkou),no,,,
350882,CN-0236,medium_airport,Rikaze Dingri Airport,28.604567,86.798,14108,AS,CN,CN-54,Xigazê (Dingri),yes,ZUDR,DDR,ZUDR
350883,CN-0237,medium_airport,Tashikuergan Hongqilafu Airport,37.661333,75.288877,10499,AS,CN,CN-65,Tashikuergan,yes,ZWTK,HQL,ZWTK
353993,CN-0316,medium_airport,Chenghu General Airport,31.215334,120.789328,33,AS,CN,CN-32,Suzhou,no,,,
354040,CN-0321,medium_airport,Anji Tianzihu General Airport,30.797725,119.590287,137,AS,CN,CN-33,Anji,no,,,ZSTZ
354509,CN-0331,medium_airport,Jiuzhou Airport,26.998259,107.759571,,AS,CN,CN-52,Jiuzhou,no,,,
354657,CN-0344,medium_airport,Paozhuwan Air Base,30.673944,114.63089,,AS,CN,CN-42,Wuhan (Xinzhou),no,,,
354658,CN-0345,medium_airport,Shanpo Air Base,30.087612,114.31366,,AS,CN,CN-42,Wuhan,no,,,
355511,CN-0354,medium_airport,Ali Pulan Airport,30.3975,81.138611,13943,AS,CN,CN-54,Burang Town,no,ZUPL,APJ,ZUPL
430508,CN-0396,medium_airport,Shaodong Airport,27.2235,111.6741,,AS,CN,CN-43,Shaoyang (Shaodong),no,,,
507629,CN-0401,medium_airport,Ningxiang Airport,27.987589,112.604971,,AS,CN,CN-43,,no,,,
300515,CN-0446,medium_airport,Jining Qufu Airport,35.292778,116.346667,134,AS,CN,CN-37,Jining,yes,,,
598595,CN-0476,medium_airport,Bengbu Tenghu Airport (U.C.),33.165808,117.057295,72,AS,CN,CN-34,Bengbu,no,,BFY,
43974,CN-JNZ,medium_airport,Sanshilipu Air Base,39.289671,121.762195,,AS,CN,CN-21,Dalian (Jinzhou),no,,,
1294,CNC3,medium_airport,Brampton-Caledon Airport,43.7603,-79.875,935,NA,CA,CA-ON,,no,,,CNC3
597498,CR-0009,large_airport,(Mislocated duplicate of MRLB) LIR,10.229845,-85.539551,,NA,CR,CR-G,,no,,,
597499,CR-0010,large_airport,LIR (Mislocated duplicate of ident: MRLB?),10.465923,-85.534058,,NA,CR,CR-G,,no,,,
1654,CYAG,medium_airport,Fort Frances Municipal Airport,48.655749,-93.44349,1125,NA,CA,CA-ON,Fort Frances,yes,CYAG,YAG,CYAG
1655,CYAH,medium_airport,La Grande-4 Airport,53.754699707,-73.6753005981,1005,NA,CA,CA-QC,La Grande-4,no,CYAH,YAH,CYAH
1657,CYAM,medium_airport,Sault Ste Marie Airport,46.483216,-84.508467,630,NA,CA,CA-ON,Sault Ste Marie,yes,CYAM,YAM,CYAM
1658,CYAQ,medium_airport,Kasabonika Airport,53.52470016479492,-88.6427993774414,672,NA,CA,CA-ON,Kasabonika,yes,CYAQ,XKS,CYAQ
1662,CYAV,medium_airport,Winnipeg / St. Andrews Airport,50.0564,-97.032501,760,NA,CA,CA-MB,Winnipeg/Saint Andrews,yes,CYAV,,CYAV
1664,CYAX,medium_airport,Lac du Bonnet Airport,50.294399,-96.010002,850,NA,CA,CA-MB,Lac du Bonnet,yes,CYAX,,CYAX
1665,CYAY,medium_airport,St. Anthony Airport,51.391909,-56.08321,108,NA,CA,CA-NL,St. Anthony,yes,CYAY,YAY,CYAY
1666,CYAZ,medium_airport,Tofino / Long Beach Airport,49.079833,-125.775583,80,NA,CA,CA-BC,Tofino,yes,CYAZ,YAZ,CYAZ
1669,CYBC,medium_airport,Baie-Comeau Airport,49.1325,-68.204399,71,NA,CA,CA-QC,Baie-Comeau,yes,CYBC,YBC,CYBC
1670,CYBD,medium_airport,Bella Coola Airport,52.387501,-126.596001,117,NA,CA,CA-BC,Bella Coola,yes,CYBD,QBC,CYBD
1672,CYBF,medium_airport,Bonnyville Airport,54.304199,-110.744003,1836,NA,CA,CA-AB,Bonnyville,yes,CYBF,YBY,CYBF
1673,CYBG,medium_airport,CFB Bagotville / Saguenay-Bagotville Airport,48.331908,-70.992909,522,NA,CA,CA-QC,La Baie,yes,CYBG,YBG,CYBG
1674,CYBK,medium_airport,Baker Lake Airport,64.29889678960001,-96.077796936,59,NA,CA,CA-NU,Baker Lake,yes,CYBK,YBK,CYBK
1675,CYBL,medium_airport,Campbell River Airport,49.950802,-125.271004,346,NA,CA,CA-BC,Campbell River,yes,CYBL,YBL,CYBL
1678,CYBR,medium_airport,Brandon Municipal Airport,49.91,-99.951897,1343,NA,CA,CA-MB,Brandon,yes,CYBR,YBR,CYBR
1680,CYBU,medium_airport,Nipawin Airport,53.33250045776367,-104.00800323486328,1220,NA,CA,CA-SK,Nipawin,no,,,CYBU
1682,CYBW,medium_airport,Calgary / Springbank Airport,51.1031,-114.374001,3940,NA,CA,CA-AB,Calgary,no,,,CYBW
1683,CYBX,medium_airport,Lourdes-de-Blanc-Sablon Airport,51.4436,-57.185299,121,NA,CA,CA-QC,Blanc-Sablon,yes,CYBX,YBX,CYBX
1685,CYCB,medium_airport,Cambridge Bay Airport,69.1081008911,-105.138000488,90,NA,CA,CA-NU,Cambridge Bay,yes,CYCB,YCB,CYCB
1686,CYCC,medium_airport,Cornwall Regional Airport,45.092637,-74.567724,175,NA,CA,CA-ON,Cornwall,no,CYCC,YCC,CYCC
1687,CYCD,medium_airport,Nanaimo Airport,49.05497,-123.869863,92,NA,CA,CA-BC,Nanaimo,yes,CYCD,YCD,CYCD
1688,CYCE,medium_airport,Centralia / James T. Field Memorial Aerodrome,43.285599,-81.508301,824,NA,CA,CA-ON,Huron Park,no,CYCE,YCE,CYCE
1689,CYCG,medium_airport,Castlegar/West Kootenay Regional Airport,49.296398,-117.632004,1624,NA,CA,CA-BC,Castlegar,yes,CYCG,YCG,CYCG
1690,CYCH,medium_airport,Miramichi Airport,47.007801,-65.449203,108,NA,CA,CA-NB,Miramichi,no,CYCH,YCH,CYCH
1691,CYCL,medium_airport,Charlo Airport,47.990799,-66.330299,132,NA,CA,CA-NB,Charlo,yes,CYCL,YCL,CYCL
1692,CYCN,medium_airport,Cochrane Airport,49.10559844970703,-81.01360321044922,861,NA,CA,CA-ON,Cochrane,no,CYCN,YCN,CYCN
1694,CYCP,medium_airport,Blue River Airport,52.11669921875,-119.28299713134766,2240,NA,CA,CA-BC,Blue River,no,,,CYCP
1695,CYCQ,medium_airport,Chetwynd Airport,55.687198638916016,-121.62699890136719,2000,NA,CA,CA-BC,Chetwynd,no,CYCQ,YCQ,CYCQ
1703,CYDA,medium_airport,Dawson City Airport,64.04309844970703,-139.1280059814453,1215,NA,CA,CA-YT,Dawson City,yes,CYDA,YDA,CYDA
1704,CYDB,medium_airport,Burwash Airport,61.371101,-139.041,2647,NA,CA,CA-YT,Burwash Landing,no,CYDB,YDB,CYDB
1706,CYDF,medium_airport,Deer Lake Airport,49.2108,-57.391399,72,NA,CA,CA-NL,Deer Lake,yes,CYDF,YDF,CYDF
1709,CYDM,medium_airport,Ross River Airport,61.9706001282,-132.42300415,2314,NA,CA,CA-YT,Ross River,no,CYDM,XRR,CYDM
1710,CYDN,medium_airport,Dauphin Barker Airport,51.1008,-100.052002,999,NA,CA,CA-MB,Dauphin,yes,CYDN,YDN,CYDN
1711,CYDO,medium_airport,Dolbeau-Saint-Felicien Airport,48.7785,-72.375,372,NA,CA,CA-QC,Dolbeau-Saint-Felicien,no,CYDO,YDO,CYDO
1713,CYDQ,medium_airport,Dawson Creek Airport,55.741245,-120.183263,2148,NA,CA,CA-BC,Dawson Creek,no,CYDQ,YDQ,CYDQ
1716,CYEE,medium_airport,Huronia Airport,44.6833000183,-79.9282989502,770,NA,CA,CA-ON,Midland,no,,,CYEE
1717,CYEG,large_airport,Edmonton International Airport,53.3097,-113.580002,2373,NA,CA,CA-AB,Edmonton,yes,CYEG,YEG,CYEG
1719,CYEL,medium_airport,Elliot Lake Municipal Airport,46.351398468,-82.5614013672,1087,NA,CA,CA-ON,Elliot Lake,no,CYEL,YEL,CYEL
1720,CYEM,medium_airport,Manitoulin East Municipal Airport,45.842435,-81.857595,869,NA,CA,CA-ON,Sheguiandah,no,CYEM,YEM,CYEM
1721,CYEN,medium_airport,Estevan Airport,49.2103004456,-102.966003418,1905,NA,CA,CA-SK,Estevan,no,CYEN,YEN,CYEN
1724,CYET,medium_airport,Edson Airport,53.578899383499994,-116.464996338,3043,NA,CA,CA-AB,Edson,no,CYET,YET,CYET
1726,CYEV,medium_airport,Inuvik Mike Zubko Airport,68.30419921880001,-133.483001709,224,NA,CA,CA-NT,Inuvik,yes,CYEV,YEV,CYEV
1727,CYEY,medium_airport,Amos/Magny Airport,48.563903,-78.249702,1068,NA,CA,CA-QC,Amos,no,CYEY,YEY,CYEY
1729,CYFB,medium_airport,Iqaluit Airport,63.756402,-68.555801,110,NA,CA,CA-NU,Iqaluit,yes,CYFB,YFB,CYFB
1730,CYFC,medium_airport,Fredericton Airport,45.868900299072266,-66.53720092773438,68,NA,CA,CA-NB,Fredericton,yes,CYFC,YFC,CYFC
1732,CYFE,medium_airport,Forestville Airport,48.74610137939453,-69.09719848632812,293,NA,CA,CA-QC,Forestville,no,CYFE,YFE,CYFE
1734,CYFJ,medium_airport,Mont-Tremblant International Airport,46.409401,-74.779999,827,NA,CA,CA-QC,La Macaza,no,CYFJ,YTM,CYFJ
1736,CYFR,medium_airport,Fort Resolution Airport,61.1808013916,-113.690002441,526,NA,CA,CA-NT,Fort Resolution,no,CYFR,YFR,CYFR
1737,CYFS,medium_airport,Fort Simpson Airport,61.76020050048828,-121.23699951171875,555,NA,CA,CA-NT,Fort Simpson,yes,CYFS,YFS,CYFS
1740,CYGD,medium_airport,Goderich Airport,43.7668991089,-81.7106018066,712,NA,CA,CA-ON,Goderich,no,,,CYGD
1741,CYGE,medium_airport,Golden Airport,51.299196,-116.982002,2575,NA,CA,CA-BC,Golden,no,,,CYGE
1743,CYGK,medium_airport,Kingston Norman Rogers Airport,44.2253,-76.596901,305,NA,CA,CA-ON,Kingston,no,CYGK,YGK,CYGK
1744,CYGL,medium_airport,La Grande Rivière Airport,53.625301361083984,-77.7042007446289,639,NA,CA,CA-QC,La Grande Rivière,yes,CYGL,YGL,CYGL
1745,CYGM,medium_airport,Gimli Industrial Park Airport,50.62810134887695,-97.04329681396484,753,NA,CA,CA-MB,Gimli,no,CYGM,YGM,CYGM
1747,CYGP,medium_airport,Michel-Pouliot Gaspé Airport,48.774915,-64.481893,112,NA,CA,CA-QC,Gaspé,yes,CYGP,YGP,CYGP
1748,CYGQ,medium_airport,Geraldton Greenstone Regional Airport,49.77830123901367,-86.93939971923828,1144,NA,CA,CA-ON,Geraldton,no,CYGQ,YGQ,CYGQ
1749,CYGR,medium_airport,Îles-de-la-Madeleine Airport,47.425242,-61.778612,35,NA,CA,CA-QC,Les Îles-de-la-Madeleine,yes,CYGR,YGR,CYGR
1751,CYGV,medium_airport,Havre-Saint-Pierre Airport,50.281898,-63.611401,124,NA,CA,CA-QC,Havre-Saint-Pierre,yes,CYGV,YGV,CYGV
1752,CYGW,medium_airport,Kuujjuarapik Airport,55.281898498535156,-77.76529693603516,34,NA,CA,CA-QC,Kuujjuarapik,yes,CYGW,YGW,CYGW
1757,CYHD,medium_airport,Dryden Regional Airport,49.831699,-92.744202,1354,NA,CA,CA-ON,Dryden,no,CYHD,YHD,CYHD
1759,CYHF,medium_airport,Hearst René Fontaine Municipal Airport,49.71419906616211,-83.68609619140625,827,NA,CA,CA-ON,Hearst,no,CYHF,YHF,CYHF
1763,CYHM,medium_airport,John C. Munro Hamilton International Airport,43.173599243199995,-79.93499755859999,780,NA,CA,CA-ON,Hamilton,yes,CYHM,YHM,CYHM
1764,CYHN,medium_airport,Hornepayne Municipal Airport,49.19309997558594,-84.75890350341797,1099,NA,CA,CA-ON,Hornepayne,no,CYHN,YHN,CYHN
1767,CYHT,medium_airport,Haines Junction Airport,60.7892,-137.546005,2150,NA,CA,CA-YT,Haines Junction,no,CYHT,YHT,CYHT
1768,CYHU,medium_airport,Montréal / Saint-Hubert Metropolitan Airport,45.517502,-73.416901,90,NA,CA,CA-QC,Montréal,yes,CYHU,YHU,CYHU
1769,CYHY,medium_airport,Hay River / Merlyn Carter Airport,60.8396987915,-115.782997131,541,NA,CA,CA-NT,Hay River,yes,CYHY,YHY,CYHY
1770,CYHZ,large_airport,Halifax / Stanfield International Airport,44.8807983398,-63.5085983276,477,NA,CA,CA-NS,Halifax,yes,CYHZ,YHZ,CYHZ
1771,CYIB,medium_airport,Atikokan Municipal Airport,48.773899,-91.638603,1408,NA,CA,CA-ON,Atikokan,no,CYIB,YIB,CYIB
1772,CYID,medium_airport,Digby / Annapolis Regional Airport,44.5458450365,-65.7854247093,499,NA,CA,CA-NS,Digby,no,CYID,YDG,CYID
1773,CYIF,medium_airport,St Augustin Airport,51.2117,-58.658298,20,NA,CA,CA-QC,St-Augustin,yes,CYIF,YIF,CYIF
1776,CYIV,medium_airport,Island Lake Airport,53.857200622558594,-94.65360260009766,770,NA,CA,CA-MB,Island Lake,yes,CYIV,YIV,CYIV
1778,CYJF,medium_airport,Fort Liard Airport,60.235801696799996,-123.46900177,708,NA,CA,CA-NT,Fort Liard,no,CYJF,YJF,CYJF
1780,CYJN,medium_airport,St Jean Airport,45.29439926147461,-73.28109741210938,136,NA,CA,CA-QC,St Jean,no,CYJN,YJN,CYJN
1783,CYJT,medium_airport,Dymond Airport,48.544201,-58.549999,84,NA,CA,CA-NL,Stephenville,no,CYJT,YJT,CYJT
1784,CYKA,medium_airport,Kamloops John Moose Fulton Field Regional Airport,50.703038,-120.448641,1133,NA,CA,CA-BC,Kamloops,yes,CYKA,YKA,CYKA
1787,CYKF,medium_airport,Region of Waterloo International Airport,43.4608,-80.378601,1054,NA,CA,CA-ON,Breslau,yes,CYKF,YKF,CYKF
1789,CYKJ,medium_airport,Key Lake Airport,57.256099700927734,-105.61799621582031,1679,NA,CA,CA-SK,Key Lake,no,CYKJ,YKJ,CYKJ
1790,CYKL,medium_airport,Schefferville Airport,54.805301666259766,-66.8052978515625,1709,NA,CA,CA-QC,Schefferville,yes,CYKL,YKL,CYKL
1340,CYKM,medium_airport,Kincardine Municipal Airport,44.201401,-81.606697,772,NA,CA,CA-ON,Kincardine,no,CYKM,YKD,CYKM
1793,CYKX,medium_airport,Kirkland Lake Airport,48.21030044555664,-79.98139953613281,1157,NA,CA,CA-ON,Kirkland Lake,no,CYKX,YKX,CYKX
1794,CYKY,medium_airport,Kindersley Airport,51.5175018311,-109.180999756,2277,NA,CA,CA-SK,Kindersley,no,CYKY,YKY,CYKY
1799,CYLD,medium_airport,Chapleau Airport,47.81999969482422,-83.3467025756836,1470,NA,CA,CA-ON,Chapleau,no,CYLD,YLD,CYLD
1801,CYLJ,medium_airport,Meadow Lake Airport,54.125301361083984,-108.52300262451172,1576,NA,CA,CA-SK,Meadow Lake,no,CYLJ,YLJ,CYLJ
1803,CYLL,medium_airport,Lloydminster Airport,53.3092,-110.072998,2193,NA,CA,CA-AB,Lloydminster,yes,CYLL,YLL,CYLL
1805,CYLR,medium_airport,Leaf Rapids Airport,56.513301849365234,-99.98529815673828,959,NA,CA,CA-MB,Leaf Rapids,no,CYLR,YLR,CYLR
1293,CYLS,medium_airport,Barrie-Lake Simcoe Regional Airport,44.485056,-79.554663,972,NA,CA,CA-ON,Barrie,yes,CYLS,YLK,CYLS
1806,CYLT,medium_airport,Alert Airport,82.517799,-62.280602,100,NA,CA,CA-NU,Alert,no,CYLT,YLT,CYLT
1808,CYLW,medium_airport,Kelowna International Airport,49.9561,-119.377998,1421,NA,CA,CA-BC,Kelowna,yes,CYLW,YLW,CYLW
1809,CYMA,medium_airport,Mayo Airport,63.61640167236328,-135.8679962158203,1653,NA,CA,CA-YT,Mayo,no,CYMA,YMA,CYMA
1810,CYME,medium_airport,Matane Airport,48.85689926147461,-67.45330047607422,102,NA,CA,CA-QC,Matane,no,CYME,YME,CYME
1811,CYMG,medium_airport,Manitouwadge Airport,49.083900451660156,-85.86060333251953,1198,NA,CA,CA-ON,Manitouwadge,no,CYMG,YMG,CYMG
1813,CYMJ,medium_airport,Moose Jaw Air Vice Marshal C. M. McEwen Airport,50.330299377441406,-105.55899810791016,1892,NA,CA,CA-SK,Moose Jaw,no,CYMJ,YMJ,CYMJ
1814,CYML,medium_airport,Charlevoix Airport,47.59749984741211,-70.2238998413086,977,NA,CA,CA-QC,Charlevoix,no,CYML,YML,CYML
1815,CYMM,medium_airport,Fort McMurray Airport,56.653301239,-111.222000122,1211,NA,CA,CA-AB,Fort McMurray,yes,CYMM,YMM,CYMM
1816,CYMO,medium_airport,Moosonee Airport,51.291099548339844,-80.60780334472656,30,NA,CA,CA-ON,Moosonee,yes,CYMO,YMO,CYMO
1817,CYMT,medium_airport,Chapais Airport,49.77190017700195,-74.5280990600586,1270,NA,CA,CA-QC,Chibougamau,yes,CYMT,YMT,CYMT
1820,CYMX,medium_airport,Montreal International (Mirabel) Airport,45.679501,-74.038696,270,NA,CA,CA-QC,Montréal,no,CYMX,YMX,CYMX
1822,CYNA,medium_airport,Natashquan Airport,50.190114,-61.78898,39,NA,CA,CA-QC,Natashquan,yes,CYNA,YNA,CYNA
1824,CYND,medium_airport,Ottawa / Gatineau Airport,45.521702,-75.563599,211,NA,CA,CA-QC,Gatineau,yes,CYND,YND,CYND
1827,CYNJ,medium_airport,Langley Airport,49.1008,-122.630997,34,NA,CA,CA-BC,Langley,no,CYNJ,YLY,CYNJ
1828,CYNL,medium_airport,Points North Landing Airport,58.27669906616211,-104.08200073242188,1605,NA,CA,CA-SK,Points North Landing,yes,CYNL,YNL,CYNL
1829,CYNM,medium_airport,Matagami Airport,49.76169967651367,-77.80280303955078,918,NA,CA,CA-QC,Matagami,no,CYNM,YNM,CYNM
1830,CYNN,medium_airport,Nejanilini Lake Airport,59.4874992371,-97.78029632570001,1000,NA,CA,CA-MB,Nejanilini Lake,no,,,CYNN
1832,CYOA,medium_airport,Ekati Airport,64.6988983154,-110.614997864,1536,NA,CA,CA-NT,Ekati,no,CYOA,YOA,CYOA
1834,CYOD,medium_airport,CFB Cold Lake,54.404998779296875,-110.27899932861328,1775,NA,CA,CA-AB,Cold Lake,no,CYOD,YOD,CYOD
1836,CYOJ,medium_airport,High Level Airport,58.62139892578125,-117.16500091552734,1110,NA,CA,CA-AB,High Level,yes,CYOJ,YOJ,CYOJ
1837,CYOO,medium_airport,Oshawa Executive Airport,43.922798,-78.894997,460,NA,CA,CA-ON,Oshawa,no,CYOO,YOO,CYOO
1838,CYOP,medium_airport,Rainbow Lake Airport,58.491402,-119.407997,1759,NA,CA,CA-AB,Rainbow Lake,no,CYOP,YOP,CYOP
1839,CYOS,medium_airport,Owen Sound / Billy Bishop Regional Airport,44.5903015137,-80.8375015259,1007,NA,CA,CA-ON,Owen Sound,no,CYOS,YOS,CYOS
1840,CYOW,large_airport,Ottawa Macdonald-Cartier International Airport,45.322498,-75.669197,374,NA,CA,CA-ON,Ottawa,yes,CYOW,YOW,CYOW
1842,CYPA,medium_airport,Prince Albert Glass Field,53.214199066199996,-105.672996521,1405,NA,CA,CA-SK,Prince Albert,yes,CYPA,YPA,CYPA
1844,CYPD,medium_airport,Port Hawkesbury Airport,45.6567001343,-61.3680992126,377,NA,CA,CA-NS,Port Hawkesbury,no,CYPD,YPS,CYPD
1845,CYPE,medium_airport,Peace River Airport,56.226898,-117.446999,1873,NA,CA,CA-AB,Peace River,yes,CYPE,YPE,CYPE
1846,CYPG,medium_airport,Portage-la-Prairie / Southport Airport,49.903099,-98.273817,885,NA,CA,CA-MB,Portage la Prairie,no,CYPG,YPG,CYPG
1848,CYPK,medium_airport,Pitt Meadows Airport,49.216099,-122.709999,11,NA,CA,CA-BC,Pitt Meadows,yes,,,CYPK
1849,CYPL,medium_airport,Pickle Lake Airport,51.4463996887207,-90.21420288085938,1267,NA,CA,CA-ON,Pickle Lake,yes,CYPL,YPL,CYPL
1851,CYPN,medium_airport,Port-Menier Airport,49.836399,-64.288597,167,NA,CA,CA-QC,Port-Menier,yes,CYPN,YPN,CYPN
1854,CYPQ,medium_airport,Peterborough Municipal Airport,44.23,-78.363297,628,NA,CA,CA-ON,Peterborough,no,CYPQ,YPQ,CYPQ
1855,CYPR,medium_airport,Prince Rupert Airport,54.286098480199996,-130.445007324,116,NA,CA,CA-BC,Prince Rupert,yes,CYPR,YPR,CYPR
1859,CYPW,medium_airport,Powell River Airport,49.83420181274414,-124.5,425,NA,CA,CA-BC,Powell River,yes,CYPW,YPW,CYPW
1860,CYPX,medium_airport,Puvirnituq Airport,60.050598,-77.286903,74,NA,CA,CA-QC,Puvirnituq,yes,CYPX,YPX,CYPX
1861,CYPY,medium_airport,Fort Chipewyan Airport,58.7672004699707,-111.11699676513672,761,NA,CA,CA-AB,Fort Chipewyan,yes,CYPY,YPY,CYPY
1862,CYPZ,medium_airport,Burns Lake Airport,54.3764,-125.950996,2343,NA,CA,CA-BC,Burns Lake,yes,CYPZ,YPZ,CYPZ
1863,CYQA,medium_airport,Muskoka Airport,44.975376,-79.306546,925,NA,CA,CA-ON,Gravenhurst,yes,CYQA,YQA,CYQA
1864,CYQB,large_airport,Quebec Jean Lesage International Airport,46.7911,-71.393303,244,NA,CA,CA-QC,Quebec,yes,CYQB,YQB,CYQB
1865,CYQD,medium_airport,The Pas Airport,53.97140121459961,-101.09100341796875,887,NA,CA,CA-MB,The Pas,yes,CYQD,YQD,CYQD
1866,CYQF,medium_airport,Red Deer Regional Airport,52.182201,-113.893997,2968,NA,CA,CA-AB,Springbrook,no,CYQF,YQF,CYQF
1867,CYQG,medium_airport,Windsor Airport,42.27560043334961,-82.95559692382812,622,NA,CA,CA-ON,Windsor,yes,CYQG,YQG,CYQG
1868,CYQH,medium_airport,Watson Lake Airport,60.116839,-128.821993,2255,NA,CA,CA-YT,Watson Lake,yes,CYQH,YQH,CYQH
1869,CYQI,medium_airport,Yarmouth Airport,43.826900482177734,-66.08809661865234,141,NA,CA,CA-NS,Yarmouth,no,CYQI,YQI,CYQI
1870,CYQK,medium_airport,Kenora Airport,49.788299560546875,-94.36309814453125,1332,NA,CA,CA-ON,Kenora,yes,CYQK,YQK,CYQK
1871,CYQL,medium_airport,Lethbridge County Airport,49.6302986145,-112.800003052,3048,NA,CA,CA-AB,Lethbridge,yes,CYQL,YQL,CYQL
1872,CYQM,medium_airport,Greater Moncton Roméo LeBlanc International Airport,46.112202,-64.678596,232,NA,CA,CA-NB,Moncton,yes,CYQM,YQM,CYQM
1873,CYQN,medium_airport,Nakina Airport,50.18280029296875,-86.69640350341797,1057,NA,CA,CA-ON,Nakina,yes,CYQN,YQN,CYQN
1874,CYQQ,medium_airport,Comox Valley Airport / CFB Comox,49.7108,-124.887001,84,NA,CA,CA-BC,Comox,yes,CYQQ,YQQ,CYQQ
1875,CYQR,medium_airport,Regina International Airport,50.43190002441406,-104.66600036621094,1894,NA,CA,CA-SK,Regina,yes,CYQR,YQR,CYQR
1876,CYQS,medium_airport,St Thomas Municipal Airport,42.77000045776367,-81.11080169677734,778,NA,CA,CA-ON,St Thomas,no,CYQS,YQS,CYQS
1877,CYQT,medium_airport,Thunder Bay Airport,48.37189865112305,-89.32389831542969,653,NA,CA,CA-ON,Thunder Bay,yes,CYQT,YQT,CYQT
1878,CYQU,medium_airport,Grande Prairie Airport,55.1796989441,-118.885002136,2195,NA,CA,CA-AB,Grande Prairie,yes,CYQU,YQU,CYQU
1879,CYQV,medium_airport,Yorkton Municipal Airport,51.26470184326172,-102.46199798583984,1635,NA,CA,CA-SK,Yorkton,no,CYQV,YQV,CYQV
1880,CYQW,medium_airport,North Battleford Airport,52.769409,-108.243742,1799,NA,CA,CA-SK,North Battleford,no,CYQW,YQW,CYQW
1881,CYQX,medium_airport,Gander International Airport / CFB Gander,48.936258,-54.567719,496,NA,CA,CA-NL,Gander,yes,CYQX,YQX,CYQX
1882,CYQY,medium_airport,Sydney / J.A. Douglas McCurdy Airport,46.1614,-60.047798,203,NA,CA,CA-NS,Sydney,yes,CYQY,YQY,CYQY
1883,CYQZ,medium_airport,Quesnel Airport,53.026100158691406,-122.51000213623047,1789,NA,CA,CA-BC,Quesnel,yes,CYQZ,YQZ,CYQZ
1885,CYRB,medium_airport,Resolute Bay Airport,74.7169036865,-94.9693984985,215,NA,CA,CA-NU,Resolute Bay,yes,CYRB,YRB,CYRB
1887,CYRI,medium_airport,Rivière-du-Loup Airport,47.764400482177734,-69.58470153808594,427,NA,CA,CA-QC,Rivière-du-Loup,no,CYRI,YRI,CYRI
1888,CYRJ,medium_airport,Roberval Airport,48.519665,-72.265735,586,NA,CA,CA-QC,Roberval,yes,CYRJ,YRJ,CYRJ
1889,CYRL,medium_airport,Red Lake Airport,51.066898345947266,-93.79309844970703,1265,NA,CA,CA-ON,Red Lake,yes,CYRL,YRL,CYRL
1891,CYRO,medium_airport,Ottawa / Rockcliffe Airport,45.4603004456,-75.64610290530001,188,NA,CA,CA-ON,Ottawa,no,CYRO,YRO,CYRO
1892,CYRP,medium_airport,Ottawa / Carp Airport,45.3191986084,-76.0222015381,382,NA,CA,CA-ON,Ottawa,no,,,CYRP
1893,CYRQ,medium_airport,Trois-Rivières Airport,46.35279846191406,-72.67939758300781,199,NA,CA,CA-QC,Trois-Rivières,no,CYRQ,YRQ,CYRQ
1895,CYRT,medium_airport,Rankin Inlet Airport,62.8114013672,-92.1157989502,94,NA,CA,CA-NU,Rankin Inlet,yes,CYRT,YRT,CYRT
1896,CYRV,medium_airport,Revelstoke Airport,50.962245,-118.184258,1459,NA,CA,CA-BC,Revelstoke,no,CYRV,YRV,CYRV
1897,CYSB,medium_airport,Sudbury Airport,46.625,-80.79889678955078,1141,NA,CA,CA-ON,Sudbury,yes,CYSB,YSB,CYSB
1898,CYSC,medium_airport,Sherbrooke Airport,45.438599,-71.691399,792,NA,CA,CA-QC,Sherbrooke,no,CYSC,YSC,CYSC
1901,CYSF,medium_airport,Stony Rapids Airport,59.250301361083984,-105.84100341796875,805,NA,CA,CA-SK,Stony Rapids,yes,CYSF,YSF,CYSF
1902,CYSG,medium_airport,Saint-Georges Airport,46.096401,-70.714699,893,NA,CA,CA-QC,Saint-Georges,no,,,CYSG
1903,CYSH,medium_airport,Smiths Falls-Montague (Russ Beach) Airport,44.945801,-75.940598,416,NA,CA,CA-ON,Smiths Falls,no,CYSH,YSH,CYSH
1904,CYSJ,medium_airport,Saint John Airport,45.31610107421875,-65.89029693603516,357,NA,CA,CA-NB,Saint John,yes,CYSJ,YSJ,CYSJ
1906,CYSL,medium_airport,Saint-Léonard Airport,47.157097,-67.836242,793,NA,CA,CA-NB,Saint-Léonard,no,CYSL,YSL,CYSL
1907,CYSM,medium_airport,Fort Smith Airport,60.020302,-111.961998,671,NA,CA,CA-NT,Fort Smith,yes,CYSM,YSM,CYSM
1908,CYSN,medium_airport,Niagara District Airport,43.191598,-79.171686,321,NA,CA,CA-ON,Niagara-on-the-Lake,yes,CYSN,YCM,CYSN
1909,CYSP,medium_airport,Marathon Airport,48.75529861450195,-86.34439849853516,1035,NA,CA,CA-ON,Marathon,no,CYSP,YSP,CYSP
1913,CYSU,medium_airport,Summerside Airport,46.440601,-63.833599,56,NA,CA,CA-PE,Slemon Park,no,CYSU,YSU,CYSU
1917,CYTA,medium_airport,Pembroke Airport,45.86439895629883,-77.25170135498047,529,NA,CA,CA-ON,Pembroke,no,CYTA,YTA,CYTA
1919,CYTF,medium_airport,Alma Airport,48.5089,-71.641899,445,NA,CA,CA-QC,Alma,no,CYTF,YTF,CYTF
1920,CYTH,medium_airport,Thompson Airport,55.80110168457031,-97.86419677734375,729,NA,CA,CA-MB,Thompson,yes,CYTH,YTH,CYTH
1924,CYTR,medium_airport,CFB Trenton,44.118900299072266,-77.5280990600586,283,NA,CA,CA-ON,Trenton,no,CYTR,YTR,CYTR
1925,CYTS,medium_airport,Timmins/Victor M. Power,48.569698333699996,-81.376701355,967,NA,CA,CA-ON,Timmins,yes,CYTS,YTS,CYTS
1926,CYTZ,medium_airport,Billy Bishop Toronto City Centre Airport,43.627499,-79.396202,252,NA,CA,CA-ON,Toronto,yes,CYTZ,YTZ,CYTZ
1928,CYUL,large_airport,Montreal / Pierre Elliott Trudeau International Airport,45.467837,-73.742294,118,NA,CA,CA-QC,Montréal,yes,CYUL,YUL,CYUL
1930,CYUX,medium_airport,Hall Beach Airport,68.7761,-81.2425,30,NA,CA,CA-NU,Sanirajak,yes,CYUX,YUX,CYUX
1931,CYUY,medium_airport,Rouyn Noranda Airport,48.20610046386719,-78.83560180664062,988,NA,CA,CA-QC,Rouyn-Noranda,yes,CYUY,YUY,CYUY
1932,CYVB,medium_airport,Bonaventure Airport,48.071098,-65.460297,123,NA,CA,CA-QC,Bonaventure,yes,CYVB,YVB,CYVB
1933,CYVC,medium_airport,La Ronge Airport,55.151401519800004,-105.262001038,1242,NA,CA,CA-SK,La Ronge,yes,CYVC,YVC,CYVC
1934,CYVD,medium_airport,Virden / RJ (Bob) Andrew Field Regional Aerodrome,49.8783,-100.917999,1454,NA,CA,CA-MB,Virden,no,,,CYVD
1936,CYVK,medium_airport,Vernon Regional Airport,50.246163,-119.330963,1140,NA,CA,CA-BC,Vernon,no,CYVK,YVE,CYVK
1938,CYVO,medium_airport,Val-d'Or Airport,48.0532989502,-77.7827987671,1107,NA,CA,CA-QC,Val-d'Or,yes,CYVO,YVO,CYVO
1939,CYVP,medium_airport,Kuujjuaq Airport,58.096099853515625,-68.4269027709961,129,NA,CA,CA-QC,Kuujjuaq,yes,CYVP,YVP,CYVP
1940,CYVQ,medium_airport,Norman Wells Airport,65.28160095214844,-126.7979965209961,238,NA,CA,CA-NT,Norman Wells,yes,CYVQ,YVQ,CYVQ
1941,CYVR,large_airport,Vancouver International Airport,49.193901062,-123.183998108,14,NA,CA,CA-BC,Vancouver,yes,CYVR,YVR,CYVR
1943,CYVV,medium_airport,Wiarton Airport,44.7458,-81.107201,729,NA,CA,CA-ON,Wiarton,yes,CYVV,YVV,CYVV
1946,CYWG,large_airport,Winnipeg / James Armstrong Richardson International Airport,49.909999847399995,-97.2398986816,783,NA,CA,CA-MB,Winnipeg,yes,CYWG,YWG,CYWG
1949,CYWK,medium_airport,Wabush Airport,52.92190170288086,-66.8644027709961,1808,NA,CA,CA-NL,Wabush,yes,CYWK,YWK,CYWK
1950,CYWL,medium_airport,Williams Lake Airport,52.1831016541,-122.054000854,3085,NA,CA,CA-BC,Williams Lake,yes,CYWL,YWL,CYWL
1954,CYWY,medium_airport,Wrigley Airport,63.20940017700195,-123.43699645996094,489,NA,CA,CA-NT,Wrigley,no,CYWY,YWY,CYWY
1955,CYXC,medium_airport,Cranbrook/Canadian Rockies International Airport,49.610801696777,-115.78199768066,3082,NA,CA,CA-BC,Cranbrook,yes,CYXC,YXC,CYXC
1957,CYXE,medium_airport,Saskatoon John G. Diefenbaker International Airport,52.170799255371094,-106.69999694824219,1653,NA,CA,CA-SK,Saskatoon,yes,CYXE,YXE,CYXE
1958,CYXH,medium_airport,Medicine Hat Regional Airport,50.018902,-110.721001,2352,NA,CA,CA-AB,Medicine Hat,yes,CYXH,YXH,CYXH
1959,CYXJ,medium_airport,Fort St John / North Peace Regional Airport,56.238098,-120.739998,2280,NA,CA,CA-BC,Fort Saint John,yes,CYXJ,YXJ,CYXJ
1960,CYXK,medium_airport,Rimouski Airport,48.477644,-68.496323,82,NA,CA,CA-QC,Rimouski,yes,CYXK,YXK,CYXK
1961,CYXL,medium_airport,Sioux Lookout Airport,50.11389923095703,-91.9052963256836,1258,NA,CA,CA-ON,Sioux Lookout,yes,CYXL,YXL,CYXL
1964,CYXQ,medium_airport,Beaver Creek Airport,62.410301208496094,-140.86700439453125,2131,NA,CA,CA-YT,Beaver Creek,no,CYXQ,YXQ,CYXQ
1965,CYXR,medium_airport,Earlton (Timiskaming Regional) Airport,47.697400654599996,-79.8473453522,800,NA,CA,CA-ON,Earlton,no,CYXR,YXR,CYXR
1966,CYXS,medium_airport,Prince George Airport,53.884311,-122.666554,2267,NA,CA,CA-BC,Prince George,yes,CYXS,YXS,CYXS
1967,CYXT,medium_airport,Northwest Regional Airport Terrace-Kitimat,54.468498,-128.576009,713,NA,CA,CA-BC,Terrace,yes,CYXT,YXT,CYXT
1968,CYXU,medium_airport,London Airport,43.035599,-81.1539,912,NA,CA,CA-ON,London,yes,CYXU,YXU,CYXU
1969,CYXX,medium_airport,Abbotsford International Airport,49.025299,-122.361,195,NA,CA,CA-BC,Abbotsford,yes,CYXX,YXX,CYXX
1970,CYXY,medium_airport,Whitehorse / Erik Nielsen International Airport,60.709599,-135.067001,2317,NA,CA,CA-YT,Whitehorse,yes,CYXY,YXY,CYXY
1971,CYXZ,medium_airport,Wawa Airport,47.96670150756836,-84.78669738769531,942,NA,CA,CA-ON,Wawa,no,CYXZ,YXZ,CYXZ
1972,CYYB,medium_airport,North Bay Jack Garland Airport,46.363602,-79.422798,1215,NA,CA,CA-ON,North Bay,yes,CYYB,YYB,CYYB
1973,CYYC,large_airport,Calgary International Airport,51.118822,-114.009933,3557,NA,CA,CA-AB,Calgary,yes,CYYC,YYC,CYYC
1974,CYYD,medium_airport,Smithers Airport,54.82469940185547,-127.18299865722656,1712,NA,CA,CA-BC,Smithers,yes,CYYD,YYD,CYYD
1975,CYYE,medium_airport,Fort Nelson Airport,58.8363990784,-122.597000122,1253,NA,CA,CA-BC,Fort Nelson,yes,CYYE,YYE,CYYE
1976,CYYF,medium_airport,Penticton Airport,49.46310043334961,-119.60199737548828,1129,NA,CA,CA-BC,Penticton,yes,CYYF,YYF,CYYF
1977,CYYG,medium_airport,Charlottetown Airport,46.290000915527344,-63.12110137939453,160,NA,CA,CA-PE,Charlottetown,yes,CYYG,YYG,CYYG
1979,CYYJ,medium_airport,Victoria International Airport,48.647201,-123.427792,63,NA,CA,CA-BC,Victoria,yes,CYYJ,YYJ,CYYJ
1980,CYYL,medium_airport,Lynn Lake Airport,56.86389923095703,-101.07599639892578,1170,NA,CA,CA-MB,Lynn Lake,yes,CYYL,YYL,CYYL
1982,CYYN,medium_airport,Swift Current Airport,50.291900634799994,-107.691001892,2680,NA,CA,CA-SK,Swift Current,no,CYYN,YYN,CYYN
1984,CYYQ,medium_airport,Churchill Airport,58.739200592041016,-94.06500244140625,94,NA,CA,CA-MB,Churchill,yes,CYYQ,YYQ,CYYQ
1985,CYYR,medium_airport,Goose Bay Airport,53.3191986084,-60.4258003235,160,NA,CA,CA-NL,Goose Bay,yes,CYYR,YYR,CYYR
1986,CYYT,large_airport,St. John's International Airport,47.618599,-52.7519,461,NA,CA,CA-NL,St. John's,yes,CYYT,YYT,CYYT
1987,CYYU,medium_airport,Kapuskasing Airport,49.411587,-82.469645,743,NA,CA,CA-ON,Kapuskasing,no,CYYU,YYU,CYYU
1988,CYYW,medium_airport,Armstrong Airport,50.29029846191406,-88.90969848632812,1058,NA,CA,CA-ON,Armstrong,no,CYYW,YYW,CYYW
1989,CYYY,medium_airport,Mont Joli Airport,48.60860061645508,-68.20809936523438,172,NA,CA,CA-QC,Mont-Joli,yes,CYYY,YYY,CYYY
1990,CYYZ,large_airport,Toronto Lester B. Pearson International Airport,43.6772,-79.6306,569,NA,CA,CA-ON,Toronto,yes,CYYZ,YYZ,CYYZ
1992,CYZE,medium_airport,Gore Bay Manitoulin Airport,45.8853,-82.567802,623,NA,CA,CA-ON,Gore Bay,no,CYZE,YZE,CYZE
1993,CYZF,medium_airport,Yellowknife International Airport,62.462799,-114.440002,675,NA,CA,CA-NT,Yellowknife,yes,CYZF,YZF,CYZF
1995,CYZH,medium_airport,Slave Lake Airport,55.292945,-114.777276,1912,NA,CA,CA-AB,Slave Lake,no,CYZH,YZH,CYZH
1996,CYZP,medium_airport,Sandspit Airport,53.25429916379999,-131.813995361,21,NA,CA,CA-BC,Sandspit,yes,CYZP,YZP,CYZP
1997,CYZR,medium_airport,Chris Hadfield Airport,42.999401,-82.308899,594,NA,CA,CA-ON,Sarnia,no,CYZR,YZR,CYZR
1998,CYZS,medium_airport,Coral Harbour Airport,64.1932983398,-83.3593978882,210,NA,CA,CA-NU,Coral Harbour,yes,CYZS,YZS,CYZS
1999,CYZT,medium_airport,Port Hardy Airport,50.680599212646484,-127.36699676513672,71,NA,CA,CA-BC,Port Hardy,yes,CYZT,YZT,CYZT
2000,CYZU,medium_airport,Whitecourt Airport,54.143902,-115.787003,2567,NA,CA,CA-AB,Whitecourt,yes,CYZU,YZU,CYZU
2001,CYZV,medium_airport,Sept-Îles Airport,50.22330093383789,-66.2656021118164,180,NA,CA,CA-QC,Sept-Îles,yes,CYZV,YZV,CYZV
2002,CYZW,medium_airport,Teslin Airport,60.17279815673828,-132.7429962158203,2313,NA,CA,CA-YT,Teslin,no,CYZW,YZW,CYZW
2003,CYZX,medium_airport,CFB Greenwood,44.98440170288086,-64.91690063476562,92,NA,CA,CA-NS,Greenwood,no,CYZX,YZX,CYZX
2004,CYZY,medium_airport,Mackenzie Airport,55.297786,-123.133907,2264,NA,CA,CA-BC,Mackenzie,yes,,,CYZY
2006,CZAM,medium_airport,Shuswap Regional Airport,50.682802,-119.228996,1751,NA,CA,CA-BC,Salmon Arm,no,CZAM,YSN,CZAM
2008,CZBB,medium_airport,Boundary Bay Airport,49.0742,-123.012001,6,NA,CA,CA-BC,Delta,no,CZBB,YDT,CZBB
2010,CZBF,medium_airport,Bathurst Airport,47.6297,-65.738899,193,NA,CA,CA-NB,South Tetagouche,yes,CZBF,ZBF,CZBF
2011,CZBM,medium_airport,Bromont (Roland Désourdy) Airport,45.290798,-72.741402,375,NA,CA,CA-QC,Bromont,no,CZBM,ZBM,CZBM
2012,CZEE,medium_airport,Kelsey Airport,56.0374984741,-96.50969696039999,600,NA,CA,CA-MB,Kelsey,no,CZEE,KES,CZEE
2014,CZFA,medium_airport,Faro Airport,62.20750045776367,-133.37600708007812,2351,NA,CA,CA-YT,Faro,no,CZFA,ZFA,CZFA
2019,CZGF,medium_airport,Grand Forks Airport,49.015598,-118.431,1720,NA,CA,CA-BC,Grand Forks,no,CZGF,ZGF,CZGF
2023,CZJG,medium_airport,Jenpeg Airport,54.51890182495117,-98.04609680175781,729,NA,CA,CA-MB,Jenpeg,no,CZJG,ZJG,CZJG
2024,CZJN,medium_airport,Swan River Airport,52.120602,-101.236,1100,NA,CA,CA-MB,Swan River,no,CZJN,ZJN,CZJN
2026,CZLQ,medium_airport,Thicket Portage Airport,55.31890106201172,-97.70780181884766,678,NA,CA,CA-MB,Thicket Portage,no,CZLQ,YTD,CZLQ
2029,CZMN,medium_airport,Pikwitonei Airport,55.58890151977539,-97.16419982910156,630,NA,CA,CA-MB,Pikwitonei,no,CZMN,PIW,CZMN
2030,CZMT,medium_airport,Masset Airport,54.0275,-132.125,25,NA,CA,CA-BC,Masset,yes,CZMT,ZMT,CZMT
2034,CZPC,medium_airport,Pincher Creek Airport,49.520429,-113.997002,3903,NA,CA,CA-AB,Pincher Creek,no,CZPC,WPC,CZPC
2037,CZSJ,medium_airport,Sandy Lake Airport,53.06420135498047,-93.34439849853516,951,NA,CA,CA-ON,Sandy Lake,yes,CZSJ,ZSJ,CZSJ
2039,CZST,medium_airport,Stewart Airport,55.935410448,-129.982434511,24,NA,CA,CA-BC,Stewart,no,CZST,ZST,CZST
2042,CZUC,medium_airport,Ignace Municipal Airport,49.428204,-91.720418,1435,NA,CA,CA-ON,Ignace,no,CZUC,ZUC,CZUC
2047,DAAB,medium_airport,Blida Airport,36.503601,2.81417,535,AF,DZ,DZ-09,Blida,no,DAAB,,DAAB
2048,DAAD,medium_airport,Bou Saada Airport,35.3325,4.20639,1506,AF,DZ,DZ-28,Ouled Sidi Brahim,no,DAAD,BUJ,DAAD
2049,DAAE,medium_airport,Soummam–Abane Ramdane Airport,36.711952,5.069804,20,AF,DZ,DZ-06,Béjaïa,yes,DAAE,BJA,DAAE
2050,DAAG,large_airport,Houari Boumediene Airport,36.693886,3.214531,82,AF,DZ,DZ-16,Algiers,yes,DAAG,ALG,DAAG
2051,DAAJ,medium_airport,Djanet Inedbirene Airport,24.292801,9.45244,3176,AF,DZ,DZ-56,Djanet,yes,DAAJ,DJG,DAAJ
2052,DAAK,medium_airport,Boufarik Air Base,36.545799,2.87611,335,AF,DZ,DZ-09,Boufarik,no,DAAK,,DAAK
2054,DAAP,medium_airport,Illizi Takhamalt Airport,26.723499,8.62265,1778,AF,DZ,DZ-33,Illizi,yes,DAAP,VVZ,DAAP
32193,DAAS,medium_airport,Ain Arnat Airport,36.178100585900005,5.3244900703399995,3360,AF,DZ,DZ-19,Sétif,yes,DAAS,QSF,DAAS
2056,DAAT,medium_airport,Aguenar – Hadj Bey Akhamok Airport,22.811501,5.45108,4518,AF,DZ,DZ-11,Tamanrasset,yes,DAAT,TMR,DAAT
2057,DAAV,medium_airport,Jijel Ferhat Abbas Airport,36.795101,5.87361,36,AF,DZ,DZ-18,Tahir,yes,DAAV,GJL,DAAV
2058,DAAY,medium_airport,Mecheria Airport,33.535900116,-0.242353007197,3855,AF,DZ,DZ-45,Mecheria,no,DAAY,MZW,DAAY
2059,DAAZ,medium_airport,Relizane Airport,35.752955,0.625877,282,AF,DZ,DZ-48,Relizane,no,DAAZ,,DAAZ
2060,DABB,medium_airport,Annaba Rabah Bitat Airport,36.826781,7.81334,16,AF,DZ,DZ-23,Annaba,yes,DABB,AAE,DABB
2061,DABC,medium_airport,Mohamed Boudiaf International Airport,36.2760009765625,6.620389938354492,2265,AF,DZ,DZ-25,Constantine,yes,DABC,CZL,DABC
2062,DABS,medium_airport,Cheikh Larbi Tébessi Airport,35.4315986633,8.12071990967,2661,AF,DZ,DZ-12,Tébessi,yes,DABS,TEE,DABS
2063,DABT,medium_airport,Batna Mostefa Ben Boulaid Airport,35.752102,6.30859,2697,AF,DZ,DZ-05,Batna,yes,DABT,BLJ,DABT
2064,DAFH,medium_airport,Hassi R'Mel Airport,32.930401,3.31154,2540,AF,DZ,DZ-03,Hassi R'Mel,no,DAFH,HRM,DAFH
2065,DAOB,medium_airport,Abdelhafid Boussouf Bou Chekif Airport,35.341099,1.46315,3245,AF,DZ,DZ-14,Tiaret,no,DAOB,TID,DAOB
2067,DAOF,medium_airport,Tindouf Airport,27.7003993988,-8.167099952700001,1453,AF,DZ,DZ-37,Tindouf,yes,DAOF,TIN,DAOF
2068,DAOI,medium_airport,Chlef Aboubakr Belkaid International Airport,36.217166,1.342237,463,AF,DZ,DZ-02,Chlef,yes,DAOI,CFK,DAOI
2069,DAOL,medium_airport,Oran Tafraoui Airport,35.5424,-0.532278,367,AF,DZ,DZ-31,Tafraoui,no,DAOL,TAF,DAOL
2070,DAON,medium_airport,Zenata – Messali El Hadj Airport,35.013426,-1.457191,814,AF,DZ,DZ-13,Zenata,yes,DAON,TLM,DAON
2071,DAOO,medium_airport,Oran Es-Sénia (Ahmed Ben Bella) International Airport,35.623901,-0.621183,295,AF,DZ,DZ-31,Es-Sénia,yes,DAOO,ORN,DAOO
2072,DAOR,medium_airport,Béchar Boudghene Ben Ali Lotfi Airport,31.645700454711914,-2.269860029220581,2661,AF,DZ,DZ-08,Béchar,yes,DAOR,CBH,DAOR
2074,DAOV,medium_airport,Ghriss Airport,35.207699,0.147142,1686,AF,DZ,DZ-29,Ghriss,no,DAOV,MUW,DAOV
2075,DAUA,medium_airport,Touat Cheikh Sidi Mohamed Belkebir Airport,27.837601,-0.186414,919,AF,DZ,DZ-01,Adrar,yes,DAUA,AZR,DAUA
2076,DAUB,medium_airport,Biskra - Mohamed Khider Airport,34.793301,5.73823,289,AF,DZ,DZ-07,Biskra,yes,DAUB,BSK,DAUB
2077,DAUE,medium_airport,El Golea Airport,30.580732,2.861595,1306,AF,DZ,DZ-50,El Menia,yes,DAUE,ELG,DAUE
2078,DAUG,medium_airport,Noumérat - Moufdi Zakaria Airport,32.384102,3.79411,1512,AF,DZ,DZ-47,El Atteuf,yes,DAUG,GHA,DAUG
2079,DAUH,medium_airport,Hassi Messaoud-Oued Irara Krim Belkacem Airport,31.673,6.14044,463,AF,DZ,DZ-30,Hassi Messaoud,yes,DAUH,HME,DAUH
2080,DAUI,medium_airport,In Salah Airport,27.250999,2.51202,896,AF,DZ,DZ-57,In Salah,yes,DAUI,INZ,DAUI
2081,DAUK,medium_airport,Touggourt Sidi Madhi Airport,33.067799,6.08867,279,AF,DZ,DZ-55,Touggourt,yes,DAUK,TGR,DAUK
2082,DAUL,medium_airport,Laghouat - Molay Ahmed Medeghri Airport,33.7644,2.92834,2510,AF,DZ,DZ-03,Laghouat,no,DAUL,LOO,DAUL
2083,DAUO,medium_airport,Guemar Airport - مطار قمار بالوادي,33.511398,6.77679,203,AF,DZ,DZ-39,Guemar,yes,DAUO,ELU,DAUO
2084,DAUT,medium_airport,Timimoun Airport,29.237101,0.276033,1027,AF,DZ,DZ-54,Timimoun,yes,DAUT,TMX,DAUT
2085,DAUU,medium_airport,Ain Beida Airport,31.9172,5.41278,492,AF,DZ,DZ-30,Ouargla,yes,DAUU,OGX,DAUU
2086,DAUZ,medium_airport,Zarzaitine - In Aménas Airport,28.0515,9.64291,1847,AF,DZ,DZ-33,In Aménas,yes,DAUZ,IAM,DAUZ
2087,DBBB,medium_airport,Cadjehoun Airport,6.357230186462402,2.384350061416626,19,AF,BJ,BJ-AQ,Cotonou,yes,DBBB,COO,DBBB
2088,DFFD,medium_airport,Ouagadougou Airport,12.3532,-1.51242,1037,AF,BF,BF-KAD,Ouagadougou,yes,DFFD,OUA,DFFD
2089,DFOO,medium_airport,Bobo Dioulasso Airport,11.160099983215332,-4.33096981048584,1511,AF,BF,BF-HOU,Bobo Dioulasso,yes,DFOO,BOY,DFOO
2090,DGAA,large_airport,Kotoka International Airport,5.605189800262451,-0.16678600013256073,205,AF,GH,GH-AA,Accra,yes,DGAA,ACC,DGAA
354173,DGAH,medium_airport,Ho Airport,6.579691,0.532547,356,AF,GH,GH-TV,Ho,yes,DGAH,,DGAH
2091,DGLE,medium_airport,Tamale Airport,9.55718994140625,-0.8632140159606934,553,AF,GH,GH-NP,Tamale,yes,DGLE,TML,DGLE
2093,DGSI,medium_airport,Kumasi Airport,6.714560031890869,-1.5908199548721313,942,AF,GH,GH-AH,Kumasi,yes,DGSI,KMS,DGSI
2094,DGSN,medium_airport,Sunyani Airport,7.36183,-2.32876,1014,AF,GH,GH-BO,Sunyani,yes,DGSN,NYI,DGSN
2095,DGTK,medium_airport,Takoradi Airport,4.896059989929199,-1.7747600078582764,21,AF,GH,GH-WP,Sekondi-Takoradi,yes,DGTK,TKD,DGTK
2096,DIAP,medium_airport,Félix-Houphouët-Boigny International Airport,5.26139,-3.92629,21,AF,CI,CI-AB,Abidjan,yes,DIAP,ABJ,DIAP
2097,DIBK,medium_airport,Bouaké Airport,7.7388,-5.07367,1230,AF,CI,CI-VB,Bouaké,yes,DIBK,BYK,DIBK
2098,DIDL,medium_airport,Daloa Airport,6.79281,-6.47319,823,AF,CI,CI-SM,,no,DIDL,DJO,DIDL
2099,DIKO,medium_airport,Korhogo Airport,9.38718,-5.55666,1214,AF,CI,CI-SV,Korhogo,yes,DIKO,HGO,DIKO
2100,DIMN,medium_airport,Man Airport,7.27207,-7.58736,1089,AF,CI,CI-MG,,no,DIMN,MJC,DIMN
2101,DISP,medium_airport,San Pedro Airport,4.74672,-6.66082,26,AF,CI,CI-BS,,yes,DISP,SPY,DISP
2102,DIYO,medium_airport,Yamoussoukro Airport,6.9031701088,-5.36558008194,699,AF,CI,CI-YM,Yamoussoukro,no,DIYO,ASK,DIYO
2104,DNAA,large_airport,Nnamdi Azikiwe International Airport,9.00679,7.26317,1123,AF,NG,NG-FC,Abuja,yes,DNAA,ABV,DNAA
309668,DNAI,medium_airport,Akwa Ibom International Airport,4.8725,8.093,170,AF,NG,NG-AK,Uyo,yes,DNAI,QUO,DNAI
2105,DNAK,medium_airport,Akure Airport,7.246739864349365,5.3010101318359375,1100,AF,NG,NG-ON,Akure,yes,DNAK,AKR,DNAK
300781,DNAS,medium_airport,Asaba International Airport,6.204167,6.665278,305,AF,NG,NG-DE,Asaba,no,DNAS,ABB,DNAS
323056,DNBC,medium_airport,Sir Abubakar Tafawa Balewa International Airport,10.482833,9.744,1965,AF,NG,NG-BA,Bauchi,yes,DNBC,BCU,DNBC
2106,DNBE,medium_airport,Benin Airport,6.316979885101318,5.5995001792907715,258,AF,NG,NG-ED,Benin,yes,DNBE,BNI,DNBE
340295,DNBY,medium_airport,Bayelsa International Airport,4.95759,6.203327,67,AF,NG,NG-BY,Yenagoa,yes,,,DNBY
2107,DNCA,medium_airport,Margaret Ekpo International Airport,4.976019859313965,8.347200393676758,210,AF,NG,NG-CR,Calabar,yes,DNCA,CBQ,DNCA
2108,DNEN,medium_airport,Akanu Ibiam International Airport,6.474269866943359,7.561960220336914,466,AF,NG,NG-EN,Enegu,yes,DNEN,ENU,DNEN
44578,DNGO,medium_airport,Gombe Lawanti International Airport,10.298889,10.9,1590,AF,NG,NG-GO,Gombe,yes,DNGO,GMO,DNGO
2109,DNGU,medium_airport,Gusau Airport,12.17286,6.696136,1520,AF,NG,NG-ZA,Gusau,no,DNGU,,DNGU
2110,DNIB,medium_airport,Ibadan Airport,7.362460136413574,3.97832989692688,725,AF,NG,NG-OY,Ibadan,yes,DNIB,IBA,DNIB
2111,DNIL,medium_airport,Ilorin International Airport,8.440210342407227,4.493919849395752,1126,AF,NG,NG-KW,Ilorin,yes,DNIL,ILR,DNIL
2112,DNIM,medium_airport,Sam Mbakwe International Airport,5.427060127258301,7.206029891967773,373,AF,NG,NG-IM,Owerri,yes,DNIM,QOW,DNIM
2113,DNJO,medium_airport,Yakubu Gowon Airport,9.639829635620117,8.869050025939941,4232,AF,NG,NG-PL,Jos,yes,DNJO,JOS,DNJO
2114,DNKA,medium_airport,Kaduna Airport,10.696000099182129,7.320109844207764,2073,AF,NG,NG-KD,Kaduna,yes,DNKA,KAD,DNKA
2115,DNKN,medium_airport,Mallam Aminu International Airport,12.0476,8.52462,1562,AF,NG,NG-KN,Kano,yes,DNKN,KAN,DNKN
2116,DNMA,medium_airport,Maiduguri International Airport,11.855299949645996,13.080900192260742,1099,AF,NG,NG-BO,Maiduguri,yes,DNMA,MIU,DNMA
2117,DNMK,medium_airport,Makurdi Airport,7.70388,8.61394,371,AF,NG,NG-BE,Makurdi,yes,DNMK,MDI,DNMK
2118,DNMM,large_airport,Murtala Muhammed International Airport,6.57737,3.32116,135,AF,NG,NG-LA,Lagos,yes,DNMM,LOS,DNMM
2119,DNMN,medium_airport,Minna Airport,9.652170181274414,6.462259769439697,834,AF,NG,NG-NI,Minna,no,DNMN,MXJ,DNMN
2120,DNPO,medium_airport,Port Harcourt International Airport,5.0154900550842285,6.94959020614624,87,AF,NG,NG-RI,Port Harcourt,yes,DNPO,PHC,DNPO
2121,DNSO,medium_airport,Sadiq Abubakar III International Airport,12.916299819946289,5.207190036773682,1010,AF,NG,NG-SO,Sokoto,yes,DNSO,SKO,DNSO
32192,DNSU,medium_airport,Warri Airport,5.59821,5.8187,242,AF,NG,NG-DE,Okpe,yes,DNSU,QRW,DNSU
2122,DNYO,medium_airport,Yola Airport,9.257550239562988,12.430399894714355,599,AF,NG,NG-AD,Yola,yes,DNYO,YOL,DNYO
2123,DNZA,medium_airport,Zaria Airport,11.1302,7.68581,2170,AF,NG,NG-KD,Zaria,no,DNZA,ZAR,DNZA
2124,DRRM,medium_airport,Maradi Airport,13.5025,7.12675,1240,AF,NE,NE-4,Maradi,no,DRRM,MFQ,DRRM
2125,DRRN,large_airport,Diori Hamani International Airport,13.4815,2.18361,732,AF,NE,NE-8,Niamey,yes,DRRN,NIM,DRRN
2126,DRRT,medium_airport,Tahoua Airport,14.8757,5.26536,1266,AF,NE,NE-5,Tahoua,no,DRRT,THZ,DRRT
2127,DRZA,medium_airport,Mano Dayak International Airport,16.965999603271484,8.000109672546387,1657,AF,NE,NE-1,Agadez,yes,DRZA,AJY,DRZA
2130,DRZR,medium_airport,Zinder Airport,13.779000282287598,8.983759880065918,1516,AF,NE,NE-7,Zinder,yes,DRZR,ZND,DRZR
2131,DTKA,medium_airport,Tabarka-Aïn Draham International Airport,36.98,8.87694,230,AF,TN,TN-32,Tabarka,yes,DTKA,TBJ,DTKA
2132,DTMB,medium_airport,Monastir Habib Bourguiba International Airport,35.75809860229492,10.75469970703125,9,AF,TN,TN-52,Monastir,yes,DTMB,MIR,DTMB
44483,DTNH,medium_airport,Enfidha - Hammamet International Airport,36.075833,10.438611,21,AF,TN,TN-51,Enfidha,yes,DTNH,NBE,DTNH
2133,DTTA,large_airport,Tunis Carthage International Airport,36.851002,10.2272,22,AF,TN,TN-11,Tunis,yes,DTTA,TUN,DTTA
2134,DTTB,medium_airport,Bizerte Sidi Ahmed Air Base,37.242356,9.787016,20,AF,TN,TN-23,Borj Challouf,no,DTTB,,DTTB
2135,DTTD,medium_airport,Remada Air Base,32.306198,10.3821,1004,AF,TN,TN-83,Remada,no,,,DTTD
2136,DTTF,medium_airport,Gafsa Ksar International Airport,34.422000885009766,8.822500228881836,1060,AF,TN,TN-71,Gafsa,yes,DTTF,GAF,DTTF
2137,DTTG,medium_airport,Gabès Matmata International Airport,33.733691,9.91941,407,AF,TN,TN-81,Gabès,yes,DTTG,GAE,DTTG
2139,DTTJ,medium_airport,Djerba Zarzis International Airport,33.875,10.7755,19,AF,TN,TN-82,Mellita,yes,DTTJ,DJE,DTTJ
2140,DTTR,medium_airport,El Borma Airport,31.7043,9.25462,827,AF,TN,TN-83,El Borma,no,DTTR,EBM,DTTR
2141,DTTX,medium_airport,Sfax Thyna International Airport,34.71799850463867,10.690999984741211,85,AF,TN,TN-61,Sfax,yes,DTTX,SFA,DTTX
2142,DTTZ,medium_airport,Tozeur Nefta International Airport,33.939701080322266,8.110560417175293,287,AF,TN,TN-72,Tozeur,yes,DTTZ,TOE,DTTZ
2143,DXNG,medium_airport,Niamtougou International Airport,9.767330169677734,1.091249942779541,1515,AF,TG,TG-K,Niamtougou,no,DXNG,LRL,DXNG
2144,DXXX,medium_airport,Lomé–Tokoin International Airport,6.16561,1.25451,72,AF,TG,TG-M,Lomé,yes,DXXX,LFW,DXXX
354383,DZ-0016,medium_airport,Amguid Regional Airport,26.393417,5.325419,2001,AF,DZ,DZ-11,Idlès,no,,,
2152,EBAW,medium_airport,Antwerp International Airport (Deurne),51.190667,4.463153,39,EU,BE,BE-VAN,Antwerp,yes,EBAW,ANR,EBAW
2153,EBBE,medium_airport,Beauvechain Air Base,50.758598,4.76833,370,EU,BE,BE-WBR,Beauvechain,no,,,EBBE
2154,EBBL,medium_airport,Kleine Brogel Air Base,51.168301,5.47,200,EU,BE,BE-VLI,Kleine Brogel,no,,,EBBL
2155,EBBR,large_airport,Brussels Airport,50.901402,4.48444,175,EU,BE,BE-VBR,Zaventem,yes,EBBR,BRU,EBBR
2157,EBCI,medium_airport,Brussels South Charleroi Airport,50.460982,4.457158,614,EU,BE,BE-WHT,Charleroi,yes,EBCI,CRL,EBCI
2158,EBCV,medium_airport,Chièvres Air Base,50.575801849365234,3.8310000896453857,194,EU,BE,BE-WHT,Chièvres,no,,,EBCV
2159,EBFN,medium_airport,Koksijde Air Base,51.090302,2.65278,20,EU,BE,BE-VWV,Koksijde,no,,,EBFN
2160,EBFS,medium_airport,Florennes Air Base,50.2433013916,4.64583015442,935,EU,BE,BE-WNA,Florennes,no,,,EBFS
2161,EBKT,medium_airport,Flanders International Airport Kortrijk-Wevelgem,50.818878,3.209551,55,EU,BE,BE-VWV,Wevelgem,no,EBKT,KJK,EBKT
2162,EBLG,medium_airport,Liège Airport,50.638574,5.443897,659,EU,BE,BE-WLG,Grâce-Hollogne,yes,EBLG,LGG,EBLG
2163,EBOS,medium_airport,Oostende-Brugge International Airport,51.1998,2.874673,13,EU,BE,BE-VWV,Oostende,yes,EBOS,OST,EBOS
2184,EDAC,medium_airport,Leipzig–Altenburg Airport,50.981945,12.506389,640,EU,DE,DE-TH,Nobitz,no,EDAC,AOC,EDAC
2187,EDAH,medium_airport,Heringsdorf Airport,53.8787,14.1523,93,EU,DE,DE-MV,Zirchow,yes,EDAH,HDF,EDAH
2743,EDBN,medium_airport,Neubrandenburg Trollenhagen Airport,53.6022,13.306,228,EU,DE,DE-MV,Trollenhagen,no,EDBN,FNB,EDBN
2200,EDBR,medium_airport,Rothenburg/Görlitz Airfield,51.363335,14.95,518,EU,DE,DE-SN,Rothenburg/Oberlausitz,no,,,EDBR
301881,EDDB,large_airport,Berlin Brandenburg Airport,52.362247,13.500672,157,EU,DE,DE-BR,Berlin,yes,EDDB,BER,EDDB
2210,EDDC,medium_airport,Dresden Airport,51.134123,13.767831,755,EU,DE,DE-SN,Dresden,yes,EDDC,DRS,EDDC
2211,EDDE,medium_airport,Erfurt-Weimar Airport,50.979801,10.9581,1036,EU,DE,DE-TH,Erfurt,yes,EDDE,ERF,EDDE
2212,EDDF,large_airport,Frankfurt Airport,50.030241,8.561096,364,EU,DE,DE-HE,Frankfurt am Main,yes,EDDF,FRA,EDDF
2213,EDDG,medium_airport,Münster Osnabrück Airport,52.134602,7.68483,160,EU,DE,DE-NW,Greven,yes,EDDG,FMO,EDDG
2214,EDDH,large_airport,Hamburg Helmut Schmidt Airport,53.630402,9.98823,53,EU,DE,DE-HH,Hamburg,yes,EDDH,HAM,EDDH
2216,EDDK,large_airport,Cologne Bonn Airport,50.865898,7.14274,302,EU,DE,DE-NW,Köln (Cologne),yes,EDDK,CGN,EDDK
2217,EDDL,large_airport,Düsseldorf Airport,51.289501,6.76678,147,EU,DE,DE-NW,Düsseldorf,yes,EDDL,DUS,EDDL
2218,EDDM,large_airport,Munich Airport,48.353802,11.7861,1487,EU,DE,DE-BY,Munich,yes,EDDM,MUC,EDDM
2219,EDDN,large_airport,Nuremberg Airport,49.498699,11.078056,1046,EU,DE,DE-BY,Nuremberg,yes,EDDN,NUE,EDDN
2220,EDDP,large_airport,Leipzig/Halle Airport,51.420657,12.232705,465,EU,DE,DE-SN,Schkeuditz,yes,EDDP,LEJ,EDDP
2221,EDDR,medium_airport,Saarbrücken Airport,49.214599609400004,7.10950994492,1058,EU,DE,DE-SL,Saarbrücken,yes,EDDR,SCN,EDDR
2222,EDDS,large_airport,Stuttgart Airport,48.689899,9.22196,1276,EU,DE,DE-BW,Stuttgart,yes,EDDS,STR,EDDS
2224,EDDV,large_airport,Hannover Airport,52.461102,9.68508,183,EU,DE,DE-NI,Hannover,yes,EDDV,HAJ,EDDV
2225,EDDW,medium_airport,Bremen Airport,53.046786,8.78932,14,EU,DE,DE-HB,Bremen,yes,EDDW,BRE,EDDW
2226,EDFE,medium_airport,Frankfurt-Egelsbach Airport,49.96,8.643043,384,EU,DE,DE-HE,Egelsbach,no,EDFE,,EDFE
2227,EDFH,medium_airport,Frankfurt-Hahn Airport,49.9487,7.26389,1649,EU,DE,DE-RP,Frankfurt am Main (Lautzenhausen),yes,EDFH,HHN,EDFH
2228,EDFM,medium_airport,Mannheim-City Airport,49.473057,8.514167,308,EU,DE,DE-BW,Mannheim,yes,EDFM,MHG,EDFM
2231,EDFZ,medium_airport,Mainz-Finthen Airfield,49.967499,8.147222,760,EU,DE,DE-RP,Mainz,no,EDFZ,,EDFZ
2232,EDGE,medium_airport,Eisenach-Kindel Airport,50.991604,10.47973,1112,EU,DE,DE-TH,Hörselberg-Hainich,no,EDGE,EIB,EDGE
2233,EDGS,medium_airport,Siegerland Airport,50.707699,8.08297,1966,EU,DE,DE-NW,Burbach,no,EDGS,SGE,EDGS
2234,EDHI,medium_airport,Hamburg-Finkenwerder Airport,53.5352783203125,9.835556030273438,23,EU,DE,DE-HH,Hamburg,no,EDHI,XFW,EDHI
2235,EDHK,medium_airport,Kiel-Holtenau Airport,54.37957,10.145266,102,EU,DE,DE-SH,Kiel,no,EDHK,KEL,EDHK
2236,EDHL,medium_airport,Lübeck Blankensee Airport,53.805401,10.7192,53,EU,DE,DE-SH,Lübeck,yes,EDHL,LBC,EDHL
2237,EDJA,medium_airport,Memmingen Allgau Airport,47.988800048799995,10.2395000458,2077,EU,DE,DE-BY,Memmingen,yes,EDJA,FMM,EDJA
2243,EDLN,medium_airport,Mönchengladbach Airport,51.230278,6.504444,125,EU,DE,DE-NW,Mönchengladbach,no,EDLN,MGL,EDLN
2244,EDLP,medium_airport,Paderborn Lippstadt Airport,51.614101,8.61632,699,EU,DE,DE-NW,Büren,yes,EDLP,PAD,EDLP
2246,EDLV,medium_airport,Weeze Airport,51.6024017334,6.14216995239,106,EU,DE,DE-NW,Weeze,yes,EDLV,NRN,EDLV
2247,EDLW,medium_airport,Dortmund Airport,51.518299,7.61224,425,EU,DE,DE-NW,Dortmund,yes,EDLW,DTM,EDLW
2248,EDMA,medium_airport,Augsburg Airport,48.425278,10.931667,1516,EU,DE,DE-BY,Augsburg,no,EDMA,AGB,EDMA
2252,EDMO,medium_airport,Oberpfaffenhofen Airport,48.081402,11.2831,1947,EU,DE,DE-BY,Weßling,no,EDMO,OBF,EDMO
2256,EDNY,medium_airport,Friedrichshafen Airport,47.671299,9.51149,1367,EU,DE,DE-BW,Friedrichshafen,yes,EDNY,FDH,EDNY
317932,EDQA,medium_airport,Bamberg-Breitenau Airfield,49.920403,10.914233,811,EU,DE,DE-BY,Bamberg,no,EDQA,,EDQA
2261,EDQD,medium_airport,Bayreuth Airport,49.985001,11.64,1601,EU,DE,DE-BY,Bindlach,no,EDQD,BYU,EDQD
2263,EDQM,medium_airport,Hof-Plauen Airport,50.288544,11.852876,1959,EU,DE,DE-BY,Hof,no,EDQM,HOQ,EDQM
2270,EDSB,medium_airport,Karlsruhe Baden-Baden Airport,48.7794,8.0805,408,EU,DE,DE-BW,Rheinmünster,yes,EDSB,FKB,EDSB
2273,EDTD,medium_airport,Donaueschingen-Villingen Airfield,47.973331,8.522222,2231,EU,DE,DE-BW,Donaueschingen,no,,,EDTD
2276,EDTL,medium_airport,Lahr Airport,48.369301,7.82772,511,EU,DE,DE-BW,Lahr/Schwarzwald,no,EDTL,LHA,EDTL
2278,EDTY,medium_airport,Adolf Würth Airport,49.118332,9.783889,1299,EU,DE,DE-BW,Schwäbisch Hall,no,,,EDTY
29094,EDUZ,medium_airport,Zerbst Airfield,52.000832,12.148611,289,EU,DE,DE-ST,Straguth,no,,,EDUZ
2284,EDVE,medium_airport,Braunschweig-Wolfsburg Airport,52.319199,10.5561,295,EU,DE,DE-NI,Braunschweig,no,EDVE,BWE,EDVE
2285,EDVK,medium_airport,Kassel Airport,51.420699,9.392152,820,EU,DE,DE-HE,Calden,yes,EDVK,KSF,EDVK
2296,EDXW,medium_airport,Westerland Sylt Airport,54.9132,8.34047,51,EU,DE,DE-SH,Sylt,yes,EDXW,GWT,EDXW
2297,EEEI,medium_airport,Ämari Air Base,59.259599,24.204799,65,EU,EE,EE-37,Keila,no,EEEI,,EEEI
2298,EEKA,medium_airport,Kärdla Airport,58.99079895019531,22.830699920654297,18,EU,EE,EE-39,Kärdla,yes,EEKA,KDL,EEKA
2299,EEKE,medium_airport,Kuressaare Airport,58.22990036010742,22.50950050354004,14,EU,EE,EE-74,Kuressaare,yes,EEKE,URE,EEKE
2300,EEPU,medium_airport,Pärnu Airport,58.41899871826172,24.47279930114746,47,EU,EE,EE-67,Pärnu,yes,EEPU,EPU,EEPU
2357,EES,medium_airport,Berenice International Airport / Banas Cape Air Base,23.980437,35.460277,108,AF,EG,EG-BA,Berenice Troglodytica,no,HEBR,EES,HEBR
2301,EETN,large_airport,Lennart Meri Tallinn Airport,59.413246,24.83264,131,EU,EE,EE-37,Tallinn,yes,EETN,TLL,EETN
2302,EETU,medium_airport,Tartu Airport,58.307438,26.686473,220,EU,EE,EE-7B,Reola,yes,EETU,TAY,EETU
2303,EFET,medium_airport,Enontekio Airport,68.362602233887,23.424299240112,1005,EU,FI,FI-10,Enontekio,yes,EFET,ENF,EFET
2305,EFHA,medium_airport,Halli Airport,61.856039,24.786686,479,EU,FI,FI-08,Jämsä,no,EFHA,KEV,EFHA
2307,EFHK,large_airport,Helsinki Vantaa Airport,60.318363,24.963341,179,EU,FI,FI-18,Helsinki (Vantaa),yes,EFHK,HEL,EFHK
2313,EFIT,medium_airport,Kitee Airport,62.1661,30.073601,364,EU,FI,FI-13,Kitee,no,EFIT,KTQ,EFIT
2314,EFIV,medium_airport,Ivalo Airport,68.607299804688,27.405300140381,481,EU,FI,FI-10,Ivalo,yes,EFIV,IVL,EFIV
2315,EFJO,medium_airport,Joensuu Airport,62.658815,29.619398,398,EU,FI,FI-13,Joensuu,yes,EFJO,JOE,EFJO
2316,EFJY,medium_airport,Jyväskylä Airport,62.399502,25.678301,459,EU,FI,FI-08,Jyväskylän Maalaiskunta,yes,EFJY,JYV,EFJY
2317,EFKA,medium_airport,Kauhava Airfield,63.127102,23.051399,151,EU,FI,FI-03,Kauhava,no,EFKA,KAU,EFKA
2318,EFKE,medium_airport,Kemi-Tornio Airport,65.778701782227,24.582099914551,61,EU,FI,FI-10,Kemi / Tornio,yes,EFKE,KEM,EFKE
2319,EFKI,medium_airport,Kajaani Airport,64.2855,27.6924,483,EU,FI,FI-05,Kajaani,yes,EFKI,KAJ,EFKI
2320,EFKJ,medium_airport,Kauhajoki Airfield,62.463212,22.390817,407,EU,FI,FI-03,Kauhajoki,no,EFKJ,KHJ,EFKJ
2321,EFKK,medium_airport,Kokkola-Pietarsaari Airport,63.721199,23.143101,84,EU,FI,FI-07,Kokkola / Kruunupyy,yes,EFKK,KOK,EFKK
2324,EFKS,medium_airport,Kuusamo Airport,65.987602,29.239401,866,EU,FI,FI-14,Kuusamo,yes,EFKS,KAO,EFKS
2325,EFKT,medium_airport,Kittilä Airport,67.700996398926,24.846799850464,644,EU,FI,FI-10,Kittilä,yes,EFKT,KTT,EFKT
2326,EFKU,medium_airport,Kuopio Airport,63.007099,27.7978,323,EU,FI,FI-15,Kuopio / Siilinjärvi,yes,EFKU,KUO,EFKU
2329,EFLP,medium_airport,Lappeenranta Airport,61.044601,28.144743,349,EU,FI,FI-02,Lappeenranta,yes,EFLP,LPP,EFLP
2330,EFMA,medium_airport,Mariehamn Airport,60.1222,19.898199,17,EU,FI,FI-01,Mariehamn,yes,EFMA,MHQ,EFMA
2332,EFMI,medium_airport,Mikkeli Airport,61.6866,27.201799,329,EU,FI,FI-04,Mikkeli,no,EFMI,MIK,EFMI
2334,EFOU,medium_airport,Oulu Airport,64.930099,25.354601,47,EU,FI,FI-14,Oulu / Oulunsalo,yes,EFOU,OUL,EFOU
2336,EFPO,medium_airport,Pori Airport,61.4617,21.799999,44,EU,FI,FI-17,Pori,yes,EFPO,POR,EFPO
334942,EFPR,medium_airport,Helsinki East-Redstone Aerodrome,60.479167,26.593889,72,EU,FI,FI-09,Helsinki (Pyhtää),no,,,EFPR
2341,EFRO,medium_airport,Rovaniemi Airport,66.564796447754,25.830400466919,642,EU,FI,FI-10,Rovaniemi,yes,EFRO,RVN,EFRO
2343,EFSA,medium_airport,Savonlinna Airport,61.9431,28.945101,311,EU,FI,FI-04,Savonlinna,yes,EFSA,SVL,EFSA
2345,EFSI,medium_airport,Seinäjoki Airport,62.692101,22.8323,302,EU,FI,FI-03,Seinäjoki / Ilmajoki,no,EFSI,SJY,EFSI
2346,EFSO,medium_airport,Sodankyla Airport,67.3949966431,26.6191005707,602,EU,FI,FI-10,Sodankyla,no,EFSO,SOT,EFSO
2347,EFTP,medium_airport,Tampere-Pirkkala Airport,61.414101,23.604401,390,EU,FI,FI-11,Tampere / Pirkkala,yes,EFTP,TMP,EFTP
2349,EFTU,medium_airport,Turku Airport,60.514099,22.2628,161,EU,FI,FI-19,Turku,yes,EFTU,TKU,EFTU
2350,EFUT,medium_airport,Utti Air Base,60.8964,26.9384,339,EU,FI,FI-09,Utti / Valkeala,no,EFUT,UTI,EFUT
2351,EFVA,medium_airport,Vaasa Airport,63.050701,21.762199,19,EU,FI,FI-12,Vaasa,yes,EFVA,VAA,EFVA
2352,EFVR,medium_airport,Varkaus Airport,62.171101,27.868601,286,EU,FI,FI-04,Varkaus / Joroinen,no,EFVR,VRK,EFVR
2353,EFYL,medium_airport,Ylivieska Airfield,64.054722,24.725278,252,EU,FI,FI-14,Ylivieska,no,EFYL,YLI,EFYL
42469,EG-0003,medium_airport,Bilbeis 2 Airfield,30.42060089111328,31.67889976501465,,AF,EG,EG-SHR,Bilbeis,no,,,
2385,EGAA,large_airport,Belfast International Airport,54.6575012207,-6.2158298492399995,268,EU,GB,GB-NIR,Belfast,yes,EGAA,BFS,EGAA
2386,EGAB,medium_airport,Enniskillen/St Angelo Airport,54.398274,-7.651179,155,EU,GB,GB-NIR,"Enniskillen, Fermanagh and Omagh",no,EGAB,ENK,EGAB
2387,EGAC,medium_airport,George Best Belfast City Airport,54.618099,-5.8725,15,EU,GB,GB-NIR,Belfast,yes,EGAC,BHD,EGAC
2388,EGAE,medium_airport,City of Derry Airport,55.04280090332031,-7.161109924316406,22,EU,GB,GB-NIR,Derry,yes,EGAE,LDY,EGAE
2389,EGBB,large_airport,Birmingham Airport,52.453899,-1.74803,327,EU,GB,GB-ENG,"Birmingham, West Midlands",yes,EGBB,BHX,EGBB
2390,EGBE,medium_airport,Coventry Airport,52.369701,-1.47972,267,EU,GB,GB-ENG,"Coventry, West Midlands",no,EGBE,CVT,EGBE
2392,EGBJ,medium_airport,Gloucestershire Airport,51.89419937133789,-2.167220115661621,101,EU,GB,GB-ENG,Staverton,no,EGBJ,GLO,EGBJ
2393,EGBN,medium_airport,Nottingham City Airport,52.919998,-1.07917,138,EU,GB,GB-ENG,Nottingham,no,EGBN,NQT,EGBN
2398,EGCC,large_airport,Manchester Airport,53.349375,-2.279521,257,EU,GB,GB-ENG,"Manchester, Greater Manchester",yes,EGCC,MAN,EGCC
2403,EGDC,medium_airport,Royal Marines Base Chivenor,51.0872,-4.15034,27,EU,GB,GB-ENG,Chivenor,no,,,EGDC
2406,EGDM,medium_airport,MoD Boscombe Down,51.152199,-1.74741,407,EU,GB,GB-ENG,"Salisbury, Wiltshire",no,,,EGDM
2408,EGDR,medium_airport,RNAS Culdrose,50.08610153198242,-5.255710124969482,267,EU,GB,GB-ENG,Helston,no,,,EGDR
2409,EGDX,medium_airport,MOD St Athan,51.405229,-3.433254,163,EU,GB,GB-WLS,"St Athan, Vale of Glamorgan",no,,,EGSY
2410,EGDY,medium_airport,RNAS Yeovilton,51.009399,-2.63882,75,EU,GB,GB-ENG,"Yeovil, Somerset",no,EGDY,YEO,EGDY
2411,EGEC,medium_airport,Campbeltown Airport,55.437198638916016,-5.686389923095703,42,EU,GB,GB-SCT,Campbeltown,yes,EGEC,CAL,EGEC
29126,EGED,medium_airport,Eday Airport,59.19060134887695,-2.7722198963165283,10,EU,GB,GB-SCT,Eday,yes,EGED,EOI,EGED
2414,EGFE,medium_airport,Haverfordwest Airport,51.833099365234375,-4.9611101150512695,159,EU,GB,GB-WLS,Haverfordwest,no,EGFE,HAW,EGFE
2415,EGFF,medium_airport,Cardiff International Airport,51.396702,-3.34333,220,EU,GB,GB-WLS,Cardiff,yes,EGFF,CWL,EGFF
2416,EGFH,medium_airport,Swansea Airport,51.601366,-4.071006,299,EU,GB,GB-WLS,Swansea,no,EGFH,SWS,EGFH
2417,EGGD,medium_airport,Bristol Airport,51.382702,-2.71909,622,EU,GB,GB-ENG,Bristol,yes,EGGD,BRS,EGGD
2418,EGGP,medium_airport,Liverpool John Lennon Airport,53.333599,-2.84972,80,EU,GB,GB-ENG,Liverpool,yes,EGGP,LPL,EGGP
2419,EGGW,large_airport,London Luton Airport,51.874699,-0.368333,526,EU,GB,GB-ENG,"Luton, Bedfordshire",yes,EGGW,LTN,EGGW
2421,EGHH,medium_airport,Bournemouth Airport,50.780483,-1.839576,38,EU,GB,GB-ENG,Bournemouth,yes,EGHH,BOH,EGHH
2422,EGHI,medium_airport,Southampton Airport,50.950298,-1.3568,44,EU,GB,GB-ENG,Southampton,yes,EGHI,SOU,EGHI
2423,EGHL,medium_airport,Lasham Airfield,51.18744,-1.031663,618,EU,GB,GB-ENG,"Alton, Hampshire",no,EGHL,,EGHL
2404,EGHQ,medium_airport,Cornwall Airport Newquay,50.440601,-4.99541,390,EU,GB,GB-ENG,Newquay,yes,EGHQ,NQY,EGHQ
2424,EGJA,medium_airport,Alderney Airport,49.706104,-2.21472,290,EU,GG,GG-A,Saint Anne,yes,EGJA,ACI,EGJA
2425,EGJB,medium_airport,Guernsey Airport,49.435001,-2.60197,336,EU,GG,GG-G,Saint Peter Port,yes,EGJB,GCI,EGJB
2426,EGJJ,medium_airport,Jersey Airport,49.20790100097656,-2.195509910583496,277,EU,JE,JE-U-A,Saint Helier,yes,EGJJ,JER,EGJJ
2427,EGKA,medium_airport,Brighton City Airport,50.835602,-0.297222,7,EU,GB,GB-ENG,"Brighton, East Sussex",no,EGKA,ESH,EGKA
2428,EGKB,medium_airport,London Biggin Hill Airport,51.33079910279999,0.0324999988079,598,EU,GB,GB-ENG,London,no,EGKB,BQH,EGKB
2429,EGKK,large_airport,London Gatwick Airport,51.148771,-0.192089,202,EU,GB,GB-ENG,London,yes,EGKK,LGW,EGKK
2430,EGLC,medium_airport,London City Airport,51.505299,0.055278,19,EU,GB,GB-ENG,London,yes,EGLC,LCY,EGLC
2431,EGLF,medium_airport,Farnborough Airport,51.275799,-0.776333,238,EU,GB,GB-ENG,"Farnborough, Hampshire",no,EGLF,FAB,EGLF
2433,EGLK,medium_airport,Blackbushe Airport,51.323898,-0.8475,325,EU,GB,GB-ENG,"Camberley, Surrey",no,EGLK,BBS,EGLK
2434,EGLL,large_airport,London Heathrow Airport,51.4706,-0.461941,83,EU,GB,GB-ENG,London,yes,EGLL,LHR,EGLL
2435,EGMC,medium_airport,London Southend Airport,51.570562,0.693627,49,EU,GB,GB-ENG,"Southend-on-Sea, Essex",yes,EGMC,SEN,EGMC
2436,EGMD,medium_airport,Lydd London Ashford Airport,50.956246,0.939074,13,EU,GB,GB-ENG,"Romney Marsh, Kent",no,EGMD,LYX,EGMD
2439,EGNC,medium_airport,Carlisle Lake District Airport,54.9375,-2.80917,190,EU,GB,GB-ENG,"Carlisle, Cumbria",no,EGNC,CAX,EGNC
2441,EGNH,medium_airport,Blackpool Airport,53.771702,-3.02861,34,EU,GB,GB-ENG,Blackpool,no,EGNH,BLK,EGNH
2442,EGNJ,medium_airport,Humberside Airport,53.576152,-0.34954,121,EU,GB,GB-ENG,"Grimsby, Lincolnshire",yes,EGNJ,HUY,EGNJ
2443,EGNL,medium_airport,Barrow Walney Island Airport,54.1286111,-3.2675,173,EU,GB,GB-ENG,Barrow-in-Furness,no,EGNL,BWF,EGNL
2444,EGNM,medium_airport,Leeds Bradford Airport,53.865898,-1.66057,681,EU,GB,GB-ENG,"Leeds, West Yorkshire",yes,EGNM,LBA,EGNM
2445,EGNO,medium_airport,Warton Aerodrome,53.745098,-2.88306,55,EU,GB,GB-ENG,Warton,no,EGNO,WRT,EGNO
2446,EGNR,medium_airport,Hawarden Airport,53.178101,-2.97778,45,EU,GB,GB-WLS,Broughton,no,EGNR,CEG,EGNR
2447,EGNS,medium_airport,Isle of Man Airport,54.083302,-4.62389,52,EU,IM,IM-U-A,Castletown,yes,EGNS,IOM,EGNS
2448,EGNT,medium_airport,Newcastle International Airport,55.037958,-1.689577,266,EU,GB,GB-ENG,"Newcastle upon Tyne, Tyne and Wear",yes,EGNT,NCL,EGNT
2449,EGNV,medium_airport,Teesside International Airport,54.509201,-1.42941,120,EU,GB,GB-ENG,"Darlington, Durham",yes,EGNV,MME,EGNV
2450,EGNX,medium_airport,East Midlands Airport,52.8311,-1.32806,306,EU,GB,GB-ENG,Nottingham,yes,EGNX,EMA,EGNX
30991,EGOM,medium_airport,RAF Spadeadam,55.0499992371,-2.54999995232,1066,EU,GB,GB-ENG,Spadeadam,no,,,EGOM
2453,EGOS,medium_airport,RAF Shawbury,52.798199,-2.66804,249,EU,GB,GB-ENG,"Shrewsbury, Shropshire",no,,,EGOS
2454,EGOV,medium_airport,Anglesey Airport,53.2481,-4.53534,37,EU,GB,GB-WLS,Angelsey,no,EGOV,VLY,EGOV
2456,EGPA,medium_airport,Kirkwall Airport,58.957801818847656,-2.9049999713897705,50,EU,GB,GB-SCT,Orkney Islands,yes,EGPA,KOI,EGPA
2457,EGPB,medium_airport,Sumburgh Airport,59.878899,-1.29556,20,EU,GB,GB-SCT,"Lerwick, Shetland",yes,EGPB,LSI,EGPB
2458,EGPC,medium_airport,Wick John O'Groats Airport,58.4589,-3.09306,126,EU,GB,GB-SCT,Wick,yes,EGPC,WIC,EGPC
2459,EGPD,medium_airport,Aberdeen International Airport,57.2019,-2.19778,215,EU,GB,GB-SCT,Aberdeen,yes,EGPD,ABZ,EGPD
2460,EGPE,medium_airport,Inverness Airport,57.54249954223633,-4.047500133514404,31,EU,GB,GB-SCT,Inverness,yes,EGPE,INV,EGPE
2461,EGPF,large_airport,Glasgow Airport,55.871899,-4.43306,26,EU,GB,GB-SCT,Glasgow,yes,EGPF,GLA,EGPF
2462,EGPH,large_airport,Edinburgh Airport,55.950145,-3.372288,135,EU,GB,GB-SCT,Edinburgh,yes,EGPH,EDI,EGPH
2463,EGPI,medium_airport,Islay Airport,55.682708,-6.257525,56,EU,GB,GB-SCT,"Isle of Islay, Argyll and Bute",yes,EGPI,ILY,EGPI
2464,EGPK,medium_airport,Glasgow Prestwick Airport,55.502003,-4.587019,65,EU,GB,GB-SCT,"Prestwick, South Ayrshire",yes,EGPK,PIK,EGPK
2465,EGPL,medium_airport,Benbecula Airport,57.48109817504883,-7.3627800941467285,19,EU,GB,GB-SCT,Balivanich,yes,EGPL,BEB,EGPL
2467,EGPN,medium_airport,Dundee Airport,56.45249938964844,-3.025830030441284,17,EU,GB,GB-SCT,Dundee,yes,EGPN,DND,EGPN
2468,EGPO,medium_airport,Stornoway Airport,58.215599,-6.33111,26,EU,GB,GB-SCT,"Stornoway, Western Isles",yes,EGPO,SYY,EGPO
29173,EGPR,medium_airport,Barra Airport,57.0228,-7.44306,5,EU,GB,GB-SCT,Eoligarry,yes,EGPR,BRR,EGPR
2469,EGPU,medium_airport,Tiree Airport,56.49919891357422,-6.869170188903809,38,EU,GB,GB-SCT,Balemartine,yes,EGPU,TRE,EGPU
2471,EGQL,medium_airport,Leuchars Station Airfield,56.37398,-2.868862,38,EU,GB,GB-SCT,"Leuchars, Fife",no,EGQL,ADX,EGQL
2472,EGQS,medium_airport,RAF Lossiemouth,57.7052001953125,-3.339169979095459,42,EU,GB,GB-SCT,Lossiemouth,no,EGQS,LMO,EGQS
2473,EGSC,medium_airport,Cambridge City Airport,52.205002,0.175,47,EU,GB,GB-ENG,"Cambridge, Cambridgeshire",no,EGSC,CBG,EGSC
2475,EGSH,medium_airport,Norwich Airport,52.6758,1.28278,117,EU,GB,GB-ENG,"Norwich, Norfolk",yes,EGSH,NWI,EGSH
2476,EGSS,large_airport,London Stansted Airport,51.884998,0.235,348,EU,GB,GB-ENG,London,yes,EGSS,STN,EGSS
2480,EGTC,medium_airport,Cranfield Airport,52.072201,-0.616667,360,EU,GB,GB-ENG,"Bedford, Bedfordshire",no,,,EGTC
2481,EGTE,medium_airport,Exeter International Airport,50.734261,-3.413984,102,EU,GB,GB-ENG,"Exeter, Devon",yes,EGTE,EXT,EGTE
2483,EGTK,medium_airport,London Oxford Airport,51.836899,-1.32,270,EU,GB,GB-ENG,"Kidlington, Oxfordshire",no,EGTK,OXF,EGTK
2486,EGUB,medium_airport,RAF Benson,51.614366,-1.095991,226,EU,GB,GB-ENG,"Wallingford, Oxfordshire",no,EGUB,BEX,EGUB
2487,EGUL,medium_airport,RAF Lakenheath,52.40954,0.561161,32,EU,GB,GB-ENG,"Brandon, Suffolk",no,EGUL,LKZ,EGUL
2488,EGUN,medium_airport,RAF Mildenhall,52.3619,0.486406,33,EU,GB,GB-ENG,"Bury Saint Edmunds, Suffolk",no,EGUN,MHZ,EGUN
2490,EGUW,medium_airport,Wattisham Airfield,52.127451,0.956189,284,EU,GB,GB-ENG,"Ipswich, Suffolk",no,,,EGUW
2492,EGVA,medium_airport,RAF Fairford,51.683568,-1.789172,286,EU,GB,GB-ENG,"Fairford, Gloucestershire",no,EGVA,FFD,EGVA
2493,EGVN,medium_airport,RAF Brize Norton,51.75,-1.58362,288,EU,GB,GB-ENG,"Carterton, Oxfordshire",no,EGVN,BZZ,EGVN
2494,EGVO,medium_airport,RAF Odiham,51.2341,-0.942825,405,EU,GB,GB-ENG,"Hook, Hampshire",no,EGVO,ODH,EGVO
2495,EGWC,medium_airport,RAF Cosford,52.639999,-2.30558,272,EU,GB,GB-ENG,Cosford,no,,,EGWC
2496,EGWU,medium_airport,RAF Northolt,51.553001,-0.418167,124,EU,GB,GB-ENG,London,no,EGWU,NHT,EGWU
2497,EGXC,medium_airport,RAF Coningsby,53.092999,-0.166014,25,EU,GB,GB-ENG,"Lincoln, Lincolnshire",no,EGXC,QCY,EGXC
2499,EGXE,medium_airport,RAF Leeming,54.297191,-1.538944,132,EU,GB,GB-ENG,"Northallerton, North Yorkshire",no,,,EGXE
2500,EGXG,medium_airport,Leeds East Airport,53.834747,-1.194678,29,EU,GB,GB-ENG,"Tadcaster, North Yorkshire",no,,,EGCM
2501,EGXH,medium_airport,RAF Honington,52.342602,0.772939,174,EU,GB,GB-ENG,"Bury Saint Edmunds, Suffolk",no,EGXH,BEQ,EGXH
2504,EGXT,medium_airport,RAF Wittering,52.612598,-0.476453,273,EU,GB,GB-ENG,"Peterborough, Cambridgeshire",no,,,EGXT
2506,EGXW,medium_airport,RAF Waddington,53.166199,-0.523811,231,EU,GB,GB-ENG,"Lincoln, Lincolnshire",no,EGXW,WTN,EGXW
2508,EGXZ,medium_airport,RAF Topcliffe,54.204116,-1.380265,92,EU,GB,GB-ENG,"Thirsk, North Yorkshire",no,,,EGXZ
2509,EGYD,medium_airport,RAF Cranwell,53.0303,-0.483242,218,EU,GB,GB-ENG,"Sleaford, Lincolnshire",no,,,EGYD
2510,EGYE,medium_airport,RAF Barkston Heath,52.960616,-0.559428,367,EU,GB,GB-ENG,"Grantham, Lincolnshire",no,,,EGYE
2511,EGYM,medium_airport,RAF Marham,52.648395,0.550692,75,EU,GB,GB-ENG,"King's Lynn, Norfolk",no,EGYM,KNF,EGYM
2512,EGYP,medium_airport,Mount Pleasant Airport,-51.82279968261719,-58.447200775146484,244,SA,FK,FK-U-A,Mount Pleasant,yes,EGYP,MPN,EGYP
2513,EHAM,large_airport,Amsterdam Airport Schiphol,52.308601,4.76389,-11,EU,NL,NL-NH,Amsterdam,yes,EHAM,AMS,EHAM
2514,EHBD,medium_airport,Kempen Airport Budel,51.255299,5.60139,114,EU,NL,NL-NB,Weert,no,EHBD,,
2515,EHBK,medium_airport,Maastricht Aachen Airport,50.911701,5.77014,375,EU,NL,NL-LI,Maastricht,yes,EHBK,MST,EHBK
2516,EHDL,medium_airport,Deelen Air Base,52.0606,5.87306,158,EU,NL,NL-GE,Arnhem,no,EHDL,,
2518,EHEH,large_airport,Eindhoven Airport,51.4500999451,5.37452983856,74,EU,NL,NL-NB,Eindhoven,yes,EHEH,EIN,EHEH
2519,EHGG,medium_airport,Groningen Airport Eelde,53.119701,6.57944,17,EU,NL,NL-DR,Groningen,yes,EHGG,GRQ,EHGG
2520,EHGR,medium_airport,Gilze Rijen Air Base,51.567402,4.93183,49,EU,NL,NL-NB,Rijen,no,EHGR,GLZ,EHGR
2521,EHKD,medium_airport,De Kooy Airfield / Den Helder Naval Air Station,52.923401,4.78062,3,EU,NL,NL-NH,Den Helder,no,EHKD,DHR,EHKD
2522,EHLE,medium_airport,Lelystad Airport,52.453188,5.514622,-13,EU,NL,NL-FL,Lelystad,no,EHLE,LEY,EHLE
2523,EHLW,medium_airport,Leeuwarden Air Base,53.228599548339844,5.760560035705566,3,EU,NL,NL-FR,Leeuwarden,no,EHLW,LWR,EHLW
2524,EHRD,medium_airport,Rotterdam The Hague Airport,51.956902,4.43722,-15,EU,NL,NL-ZH,Rotterdam,yes,EHRD,RTM,EHRD
2526,EHTW,medium_airport,Twente Airport,52.275833,6.889167,114,EU,NL,NL-OV,Enschede,no,EHTW,ENS,EHTW
2528,EHVK,medium_airport,Volkel Air Base,51.657222,5.707778,72,EU,NL,NL-NB,Uden,no,EHVK,UDE,EHVK
2529,EHWO,medium_airport,Woensdrecht Air Base,51.4491,4.34203,63,EU,NL,NL-NB,Hoogerheide,no,EHWO,WOE,EHWO
2530,EICK,medium_airport,Cork Airport,51.841301,-8.49111,502,EU,IE,IE-CO,Cork,yes,EICK,ORK,EICK
2531,EICM,medium_airport,Galway Airport,53.300201,-8.94159,81,EU,IE,IE-G,Galway,no,EICM,,EICM
2532,EIDL,medium_airport,Donegal Airport,55.0442008972168,-8.340999603271484,30,EU,IE,IE-DL,Donegal,yes,EIDL,CFN,EIDL
2533,EIDW,large_airport,Dublin Airport,53.428713,-6.262121,242,EU,IE,IE-D,Dublin,yes,EIDW,DUB,EIDW
2534,EIKN,medium_airport,Ireland West Knock Airport,53.910301,-8.81849,665,EU,IE,IE-MO,Charlestown,yes,EIKN,NOC,EIKN
2535,EIKY,medium_airport,Kerry Airport,52.180901,-9.52378,112,EU,IE,IE-KY,Farranfore,yes,EIKY,KIR,EIKY
2536,EIME,medium_airport,Casement Air Base,53.301700592,-6.451330184940001,319,EU,IE,IE-D,Baldonnel,no,,,EIME
2537,EINN,large_airport,Shannon Airport,52.702,-8.92482,46,EU,IE,IE-CE,Shannon,yes,EINN,SNN,EINN
2538,EISG,medium_airport,Sligo Airport,54.280200958252,-8.5992097854614,11,EU,IE,IE-SO,Sligo,no,EISG,SXL,EISG
2539,EIWF,medium_airport,Waterford Airport,52.187199,-7.08696,119,EU,IE,IE-WD,Waterford,no,EIWF,WAT,EIWF
27310,EIWT,medium_airport,Weston Airport,53.351622,-6.490357,150,EU,IE,IE-D,Leixlip,no,EIWT,,
2540,EKAH,medium_airport,Aarhus Airport,56.303331,10.618286,82,EU,DK,DK-82,Aarhus,yes,EKAH,AAR,EKAH
2541,EKBI,large_airport,Billund Airport,55.740335,9.157019,247,EU,DK,DK-83,Billund,yes,EKBI,BLL,EKBI
2542,EKCH,large_airport,Copenhagen Kastrup Airport,55.617900848389,12.656000137329,17,EU,DK,DK-84,Copenhagen,yes,EKCH,CPH,EKCH
2543,EKEB,medium_airport,Esbjerg Airport,55.525902,8.5534,97,EU,DK,DK-83,Esbjerg,yes,EKEB,EBJ,EKEB
2546,EKKA,medium_airport,Midtjyllands Airport / Air Base Karup,56.297139,9.104311,170,EU,DK,DK-82,Karup,yes,EKKA,KRP,EKKA
2548,EKMB,medium_airport,Lolland Falster Maribo Airport,54.699447,11.438163,16,EU,DK,DK-85,Rødby,no,EKMB,MRW,EKMB
2549,EKOD,medium_airport,Odense Hans Christian Andersen Airport,55.475307,10.327206,56,EU,DK,DK-83,Odense,yes,EKOD,ODE,EKOD
2551,EKRK,medium_airport,Copenhagen Roskilde Airport,55.585602,12.1314,146,EU,DK,DK-85,Roskilde,yes,EKRK,RKE,EKRK
2552,EKRN,medium_airport,Bornholm Airport,55.063301,14.7596,52,EU,DK,DK-84,Rønne,yes,EKRN,RNN,EKRN
2553,EKSB,medium_airport,Sønderborg Airport,54.96440124511719,9.791729927062988,24,EU,DK,DK-83,Sønderborg,yes,EKSB,SGD,EKSB
2554,EKSN,medium_airport,Sindal Airport,57.503502,10.2294,92,EU,DK,DK-81,Sindal,no,EKSN,CNL,EKSN
2555,EKSP,medium_airport,Skrydstrup Air Base,55.221048,9.26702,141,EU,DK,DK-83,Vojens,no,EKSP,SKS,EKSP
2556,EKSV,medium_airport,Skive Airport,56.550201,9.17298,74,EU,DK,DK-82,Skive,no,EKSV,SQW,EKSV
2557,EKTS,medium_airport,Thisted Airport,57.068802,8.70522,23,EU,DK,DK-81,Thisted,no,EKTS,TED,EKTS
2558,EKVD,medium_airport,Kolding Vamdrup Airfield,55.436298,9.33092,143,EU,DK,DK-83,Kolding / Vamdrup,no,,,EKVD
2559,EKVG,medium_airport,Vágar Airport,62.063256,-7.275782,280,EU,FO,FO-U-A,Vágar,yes,EKVG,FAE,EKVG
2561,EKVJ,medium_airport,Stauning Vestjylland  Airport,55.990101,8.35391,17,EU,DK,DK-82,Skjern,no,EKVJ,STA,EKVJ
2562,EKYT,medium_airport,Aalborg Airport,57.094763,9.84993,10,EU,DK,DK-81,Aalborg,yes,EKYT,AAL,EKYT
2563,ELLX,large_airport,Luxembourg-Findel International Airport,49.6233333,6.2044444,1234,EU,LU,LU-L,Luxembourg,yes,ELLX,LUX,ELLX
2564,ENAL,medium_airport,"Ålesund Airport, Vigra",62.5625,6.1197,69,EU,NO,NO-15,Ålesund,yes,ENAL,AES,ENAL
2565,ENAN,medium_airport,"Andøya Airport, Andenes",69.292503,16.144199,43,EU,NO,NO-18,Andenes,yes,ENAN,ANX,ENAN
2566,ENAT,medium_airport,Alta Airport,69.976097,23.3717,9,EU,NO,NO-56,Alta,yes,ENAT,ALF,ENAT
2568,ENBN,medium_airport,"Brønnøysund Airport, Brønnøy",65.461098,12.2175,25,EU,NO,NO-18,Brønnøy,yes,ENBN,BNN,ENBN
2569,ENBO,medium_airport,Bodø Airport,67.269203,14.3653,42,EU,NO,NO-18,Bodø,yes,ENBO,BOO,ENBO
2570,ENBR,large_airport,"Bergen Airport, Flesland",60.2934,5.21814,170,EU,NO,NO-46,Bergen,yes,ENBR,BGO,ENBR
2571,ENBS,medium_airport,Båtsfjord Airport,70.60025,29.692612,490,EU,NO,NO-56,Båtsfjord,yes,ENBS,BJF,ENBS
29255,ENBV,medium_airport,Berlevåg Airport,70.871517,29.034097,42,EU,NO,NO-56,Berlevåg,yes,ENBV,BVG,ENBV
2572,ENCN,medium_airport,"Kristiansand Airport, Kjevik",58.204201,8.08537,57,EU,NO,NO-42,Kjevik,yes,ENCN,KRS,ENCN
2574,ENDU,medium_airport,Bardufoss Airport,69.055801,18.5404,252,EU,NO,NO-55,Målselv,yes,ENDU,BDU,ENDU
2575,ENEV,medium_airport,"Harstad/Narvik Airport, Evenes",68.491302490234,16.678100585938,84,EU,NO,NO-18,Evenes,yes,ENEV,EVE,ENEV
2577,ENFL,medium_airport,Florø Airport,61.583599090576,5.0247201919556,37,EU,NO,NO-46,Florø,yes,ENFL,FRO,ENFL
2578,ENGM,large_airport,"Oslo Airport, Gardermoen",60.193901,11.1004,681,EU,NO,NO-32,Oslo (Gardermoen),yes,ENGM,OSL,ENGM
2579,ENHD,medium_airport,"Haugesund Airport, Karmøy",59.345299,5.20836,86,EU,NO,NO-11,Karmøy,yes,ENHD,HAU,ENHD
28115,ENHF,medium_airport,Hammerfest Airport,70.679703,23.6686,266,EU,NO,NO-56,Hammerfest,yes,ENHF,HFT,ENHF
29261,ENHV,medium_airport,"Honningsvåg Airport, Valan",71.009697,25.983601,44,EU,NO,NO-56,Honningsvåg,yes,ENHV,HVG,ENHV
2581,ENKB,medium_airport,"Kristiansund Airport, Kvernberget",63.111801,7.82452,204,EU,NO,NO-15,Kvernberget,yes,ENKB,KSU,ENKB
2583,ENKR,medium_airport,"Kirkenes Airport, Høybuktmoen",69.7258,29.8913,283,EU,NO,NO-56,Kirkenes,yes,ENKR,KKN,ENKR
29264,ENLK,medium_airport,Leknes Airport,68.152496337891,13.609399795532,78,EU,NO,NO-18,Leknes,yes,ENLK,LKN,ENLK
29265,ENMH,medium_airport,Mehamn Airport,71.029701,27.8267,39,EU,NO,NO-56,Mehamn,yes,ENMH,MEH,ENMH
2585,ENML,medium_airport,"Molde Airport, Årø",62.744701,7.2625,10,EU,NO,NO-15,Årø,yes,ENML,MOL,ENML
2586,ENMS,medium_airport,"Mosjøen Airport, Kjærstad",65.783997,13.2149,237,EU,NO,NO-18,Mosjøen,yes,ENMS,MJF,ENMS
2587,ENNA,medium_airport,"Lakselv Airport, Banak",70.068802,24.973499,25,EU,NO,NO-56,Lakselv,yes,ENNA,LKL,ENNA
2588,ENNO,medium_airport,Notodden Airport,59.565071,9.213152,63,EU,NO,NO-40,Notodden,no,ENNO,NTB,ENNO
2589,ENOL,medium_airport,Ørland Airport,63.69889831542969,9.604000091552734,28,EU,NO,NO-50,Ørland,yes,ENOL,OLA,ENOL
28114,ENOV,medium_airport,"Ørsta-Volda Airport, Hovden",62.180000305176,6.0741000175476,243,EU,NO,NO-15,Ørsta,yes,ENOV,HOV,ENOV
29277,ENRA,medium_airport,"Mo i Rana Airport, Røssvoll",66.363899230957,14.301400184631,229,EU,NO,NO-18,Mo i Rana,yes,ENRA,MQN,ENRA
29278,ENRM,medium_airport,"Rørvik Airport, Ryum",64.838302612305,11.14610004425,14,EU,NO,NO-50,Rørvik,yes,ENRM,RVK,ENRM
2591,ENRO,medium_airport,Røros Airport,62.578399658203,11.342300415039,2054,EU,NO,NO-50,Røros,yes,ENRO,RRS,ENRO
2592,ENRY,medium_airport,"Moss Airport, Rygge",59.378817,10.785439,174,EU,NO,NO-31,Oslo,no,ENRY,,ENRY
2593,ENSB,medium_airport,"Svalbard Airport, Longyear",78.246101379395,15.465600013733,88,EU,NO,NO-21,Longyearbyen,yes,ENSB,LYR,ENSB
29281,ENSH,medium_airport,"Svolvær Airport, Helle",68.243301,14.6692,27,EU,NO,NO-18,Svolvær,yes,ENSH,SVJ,ENSH
29282,ENSK,medium_airport,"Stokmarknes Airport, Skagen",68.578827,15.033417,11,EU,NO,NO-18,Hadsel,yes,ENSK,SKN,ENSK
2594,ENSN,medium_airport,Skien Airport,59.185001,9.56694,463,EU,NO,NO-40,Geiteryggen,no,ENSN,,ENSN
2595,ENSO,medium_airport,"Stord Airport, Sørstokken",59.791901,5.34085,160,EU,NO,NO-46,Leirvik,yes,ENSO,SRP,ENSO
2596,ENSR,medium_airport,Sørkjosen Airport,69.786797,20.9594,16,EU,NO,NO-55,Sørkjosen,yes,ENSR,SOJ,ENSR
2597,ENSS,medium_airport,"Vardø Airport, Svartnes",70.3554,31.044901,42,EU,NO,NO-56,Vardø,yes,ENSS,VAW,ENSS
2598,ENST,medium_airport,"Sandnessjøen Airport, Stokka",65.956802,12.4689,56,EU,NO,NO-18,Alstahaug,yes,ENST,SSJ,ENST
2599,ENTC,large_airport,"Tromsø Airport, Langnes",69.683296,18.9189,31,EU,NO,NO-55,Tromsø,yes,ENTC,TOS,ENTC
2600,ENTO,medium_airport,"Sandefjord Airport, Torp",59.186699,10.2586,286,EU,NO,NO-39,Torp,yes,ENTO,TRF,ENTO
2601,ENVA,large_airport,"Trondheim Airport, Værnes",63.457802,10.924,56,EU,NO,NO-50,Trondheim,yes,ENVA,TRD,ENVA
29284,ENVD,medium_airport,Vadsø Airport,70.0653,29.8447,127,EU,NO,NO-56,Vadsø,yes,ENVD,VDS,ENVD
2602,ENZV,large_airport,"Stavanger Airport, Sola",58.876701,5.63778,29,EU,NO,NO-11,Stavanger,yes,ENZV,SVG,ENZV
2604,EPBY,medium_airport,Bydgoszcz Ignacy Jan Paderewski Airport,53.096802,17.977699,235,EU,PL,PL-KP,Bydgoszcz,yes,EPBY,BZG,EPBY
2605,EPCE,medium_airport,Cewice Naval Air Base,54.417664,17.773512,495,EU,PL,PL-PM,Siemirowice,no,,,EPCE
2607,EPDE,medium_airport,Deblin Military Air Base,51.551399231,21.8936004639,392,EU,PL,PL-LU,Dęblin,no,,,EPDE
2608,EPGD,large_airport,Gdańsk Lech Wałęsa Airport,54.377602,18.4662,489,EU,PL,PL-PM,Gdańsk,yes,EPGD,GDN,EPGD
29975,EPIR,medium_airport,Inowroclaw Military Air Base,52.8293991089,18.3306007385,259,EU,PL,PL-KP,,no,,,EPIR
2609,EPKK,large_airport,Kraków John Paul II International Airport,50.077702,19.7848,791,EU,PL,PL-MA,Balice,yes,EPKK,KRK,EPKK
2612,EPKS,medium_airport,Krzesiny Military Air Base,52.331699,16.9664,265,EU,PL,PL-WP,Poznań,no,,,EPKS
2613,EPKT,medium_airport,Katowice Wojciech Korfanty International Airport,50.476015,19.080705,995,EU,PL,PL-SL,Katowice,yes,EPKT,KTW,EPKT
309484,EPLB,medium_airport,Lublin Airport,51.240157,22.713461,633,EU,PL,PL-LU,Lublin,yes,EPLB,LUZ,EPLB
2615,EPLK,medium_airport,Łask Air Base,51.551701,19.1791,633,EU,PL,PL-LD,Łask,no,,,EPLK
2616,EPLL,medium_airport,Łódź Władysław Reymont Airport,51.721901,19.3981,604,EU,PL,PL-LD,Łódź,yes,EPLL,LCJ,EPLL
31015,EPLY,medium_airport,Leźnica Wielka Air Base,52.004945,19.143792,377,EU,PL,PL-LD,Leźnica Wielka,no,,,EPLY
2618,EPMB,medium_airport,Malbork Królewo Air Base,54.026598,19.135718,16,EU,PL,PL-PM,Królewo,no,,,EPMB
2619,EPMI,medium_airport,Miroslawiec Military Air Base,53.3951,16.0828,459,EU,PL,PL-ZP,Mirosławiec,no,,,EPMI
2621,EPMM,medium_airport,Minsk Mazowiecki Military Air Base,52.1954994202,21.6558990479,604,EU,PL,PL-MZ,,no,,,EPMM
2622,EPMO,medium_airport,Modlin Airport,52.451099,20.6518,341,EU,PL,PL-MZ,Nowy Dwór Mazowiecki,yes,EPMO,WMI,EPMO
2625,EPPO,medium_airport,Poznań-Ławica Airport,52.421598,16.823359,308,EU,PL,PL-WP,Poznań,yes,EPPO,POZ,EPPO
2627,EPPW,medium_airport,Powidz Military Air Base,52.380087,17.853155,371,EU,PL,PL-WP,Powidz,no,,,EPPW
2628,EPRA,medium_airport,Warsaw Radom Airport,51.38937,21.214742,610,EU,PL,PL-MZ,Radom,yes,EPRA,RDO,EPRA
2629,EPRZ,medium_airport,Rzeszów-Jasionka Airport,50.109791,22.024155,693,EU,PL,PL-PK,Jasionka,yes,EPRZ,RZE,EPRZ
2630,EPSC,medium_airport,Solidarity Szczecin–Goleniów Airport,53.584702,14.9022,154,EU,PL,PL-ZP,Glewice,yes,EPSC,SZZ,EPSC
2633,EPSN,medium_airport,Swidwin Military Air Base,53.790599823,15.826299667399999,385,EU,PL,PL-ZP,,no,,,EPSN
2635,EPSY,medium_airport,Olsztyn-Mazury Airport,53.481899,20.9377,463,EU,PL,PL-WN,Szymany,yes,EPSY,SZY,EPSY
31016,EPTM,medium_airport,Tomaszów Mazowiecki Military Air Base,51.5844,20.097799,571,EU,PL,PL-LD,Nowy Glinnik,no,,,EPTM
2637,EPWA,large_airport,Warsaw Chopin Airport,52.165699,20.9671,362,EU,PL,PL-MZ,Warsaw,yes,EPWA,WAW,EPWA
2638,EPWR,medium_airport,Copernicus Wrocław Airport,51.103719,16.882096,404,EU,PL,PL-DS,Wrocław,yes,EPWR,WRO,EPWR
2639,EPZG,medium_airport,Zielona Góra-Babimost Airport,52.1385,15.7986,194,EU,PL,PL-LB,Nowe Kramsko,yes,EPZG,IEG,EPZG
320825,ES-0109,medium_airport,Folgueroles Airfield,41.9527,2.3072,1670,EU,ES,ES-CT,Folgueroles,no,,,
2643,ESCF,medium_airport,Malmen Air Base,58.402302,15.5257,308,EU,SE,SE-E,Linköping,no,,,ESCF
2646,ESDF,medium_airport,Ronneby Airport,56.266701,15.265,191,EU,SE,SE-K,Ronneby,yes,ESDF,RNB,ESDF
2647,ESFR,medium_airport,Råda Air Base,58.4981,13.0532,230,EU,SE,SE-Q,Råda,no,,,ESFR
2648,ESGG,large_airport,Göteborg Landvetter Airport,57.6628,12.2798,506,EU,SE,SE-Q,Göteborg,yes,ESGG,GOT,ESGG
2649,ESGJ,medium_airport,Jönköping Airport,57.757598876953125,14.068699836730957,741,EU,SE,SE-F,Jönköping,yes,ESGJ,JKG,ESGJ
2652,ESGP,medium_airport,Säve Airport,57.7747,11.8704,59,EU,SE,SE-Q,Göteborg,no,ESGP,GSE,ESGP
2653,ESGR,medium_airport,Skövde Airport,58.456402,13.9727,324,EU,SE,SE-Q,Skövde,no,ESGR,KVB,ESGR
2654,ESGT,medium_airport,Trollhättan-Vänersborg Airport,58.31809997558594,12.345000267028809,137,EU,SE,SE-Q,Trollhättan,yes,ESGT,THN,ESGT
2656,ESIB,medium_airport,Såtenäs Air Base,58.426399,12.7144,181,EU,SE,SE-Q,Såtenäs,no,,,ESIB
2658,ESKK,medium_airport,Karlskoga Airport,59.345901,14.4959,407,EU,SE,SE-T,Karlskoga,no,ESKK,KSK,ESKK
2659,ESKM,medium_airport,Mora Airport,60.957901,14.5114,634,EU,SE,SE-W,Mora,yes,ESKM,MXX,ESKM
2660,ESKN,medium_airport,Stockholm Skavsta Airport,58.788601,16.912201,140,EU,SE,SE-D,Nyköping,yes,ESKN,NYO,ESKN
316498,ESKS,medium_airport,Scandinavian Mountains Airport,61.158393,12.842503,1608,EU,SE,SE-W,Malung-Sälen,yes,,SCR,ESKS
2664,ESMK,medium_airport,Kristianstad Airport,55.9217,14.0855,76,EU,SE,SE-M,Kristianstad,no,ESMK,KID,ESMK
2668,ESMQ,medium_airport,Kalmar Airport,56.685501,16.2876,17,EU,SE,SE-H,Kalmar,yes,ESMQ,KLR,ESMQ
2669,ESMS,medium_airport,Malmö Sturup Airport,55.535564,13.376327,236,EU,SE,SE-M,Malmö,yes,ESMS,MMX,ESMS
2670,ESMT,medium_airport,Halmstad Airport,56.69110107421875,12.820199966430664,101,EU,SE,SE-N,Halmstad,yes,ESMT,HAD,ESMT
2672,ESMX,medium_airport,Växjö Kronoberg Airport,56.929100036621094,14.727999687194824,610,EU,SE,SE-G,Växjö,yes,ESMX,VXO,ESMX
2676,ESNG,medium_airport,Gällivare Airport,67.13240051269531,20.814599990844727,1027,EU,SE,SE-BD,Gällivare,yes,ESNG,GEV,ESNG
2679,ESNK,medium_airport,Kramfors-Sollefteå Höga Kusten Airport,63.048599,17.7689,34,EU,SE,SE-Y,Nyland,yes,ESNK,KRF,ESNK
2680,ESNL,medium_airport,Lycksele Airport,64.548302,18.7162,705,EU,SE,SE-AC,Lycksele,yes,ESNL,LYC,ESNL
2682,ESNN,medium_airport,Sundsvall-Härnösand Airport,62.528099060058594,17.443899154663086,16,EU,SE,SE-Y,Sundsvall/ Härnösand,yes,ESNN,SDL,ESNN
2683,ESNO,medium_airport,Örnsköldsvik Airport,63.40829849243164,18.989999771118164,354,EU,SE,SE-Y,Örnsköldsvik,yes,ESNO,OER,ESNO
2685,ESNQ,medium_airport,Kiruna Airport,67.821998596191,20.336799621582,1508,EU,SE,SE-BD,Kiruna,yes,ESNQ,KRN,ESNQ
2687,ESNS,medium_airport,Skellefteå Airport,64.62480163574219,21.076900482177734,157,EU,SE,SE-AC,Skellefteå,yes,ESNS,SFT,ESNS
2689,ESNU,medium_airport,Umeå Airport,63.791801452637,20.282800674438,24,EU,SE,SE-AC,Umeå,yes,ESNU,UME,ESNU
2690,ESNV,medium_airport,Vilhelmina South Lapland Airport,64.579102,16.833599,1140,EU,SE,SE-AC,Vilhelmina,yes,ESNV,VHM,ESNV
2691,ESNX,medium_airport,Arvidsjaur Airport,65.59030151367188,19.28190040588379,1245,EU,SE,SE-BD,Arvidsjaur,yes,ESNX,AJR,ESNX
2692,ESNY,medium_airport,Söderhamn Airport,61.261501,17.0991,88,EU,SE,SE-X,Söderhamn,no,ESNY,SOO,ESNY
29358,ESNZ,medium_airport,Åre Östersund Airport,63.194135,14.500322,1233,EU,SE,SE-Z,Östersund,yes,ESNZ,OSD,ESNZ
2693,ESOE,medium_airport,Örebro Airport,59.22370147705078,15.038000106811523,188,EU,SE,SE-T,Örebro,yes,ESOE,ORB,ESOE
2695,ESOK,medium_airport,Karlstad Airport,59.444698,13.3374,352,EU,SE,SE-S,Karlstad,yes,ESOK,KSD,ESOK
2696,ESOW,medium_airport,Stockholm Västerås Airport,59.58940124511719,16.63360023498535,21,EU,SE,SE-U,Stockholm / Västerås,yes,ESOW,VST,ESOW
2697,ESPA,medium_airport,Luleå Airport,65.5438,22.122,65,EU,SE,SE-BD,Luleå,yes,ESPA,LLA,ESPA
2701,ESSA,large_airport,Stockholm-Arlanda Airport,59.64849,17.928829,137,EU,SE,SE-AB,Stockholm,yes,ESSA,ARN,ESSA
2702,ESSB,medium_airport,Stockholm-Bromma Airport,59.354400634765625,17.941699981689453,47,EU,SE,SE-AB,Stockholm,yes,ESSB,BMA,ESSB
2703,ESSD,medium_airport,Dala Airport,60.422001,15.5152,503,EU,SE,SE-W,Borlange,yes,ESSD,BLE,ESSD
2705,ESSK,medium_airport,Gävle Sandviken Airport,60.5933,16.951401,224,EU,SE,SE-X,Gävle / Sandviken,no,ESSK,GVX,ESSK
2706,ESSL,medium_airport,Linköping City Airport,58.4062004089,15.680500030500001,172,EU,SE,SE-E,Linköping,yes,ESSL,LPI,ESSL
2707,ESSP,medium_airport,Norrköping Airport,58.586299896240234,16.250600814819336,32,EU,SE,SE-E,Norrköping,yes,ESSP,NRK,ESSP
2708,ESST,medium_airport,Torsby Airport,60.1576,12.9913,393,EU,SE,SE-S,Torsby,yes,ESST,TYF,ESST
2709,ESSU,medium_airport,Eskilstuna Airport,59.351101,16.708401,139,EU,SE,SE-D,Eskilstuna,no,ESSU,EKT,ESSU
2710,ESSV,medium_airport,Visby Airport,57.662799835205,18.346200942993,164,EU,SE,SE-I,Visby,yes,ESSV,VBY,ESSV
2711,ESTA,medium_airport,Ängelholm-Helsingborg Airport,56.29610061645508,12.847100257873535,68,EU,SE,SE-M,Ängelholm,yes,ESTA,AGH,ESTA
